,lat,lon,name,projected_lon,projected_lat,centroid_distance,travel_time
0,51.52916347,-0.109970527,"River Street , Clerkenwell",27811.388446635683,28282.270369074802,2781.898624576281,5610.0
1,51.49960695,-0.197574246,"Phillimore Gardens, Kensington",21813.727944294733,24840.82796555708,4146.800615317201,4561.0
2,51.52128377,-0.084605692,"Christopher Street, Liverpool Street",29594.34266148755,27451.475186475815,4310.76334975079,5780.0
3,51.53005939,-0.120973687,"St. Chad's Street, King's Cross",27045.34411292318,28362.269050930423,2161.941173449845,5683.0
4,51.49313,-0.156876,"Sedding Street, Sloane Square",24657.683763620982,24190.679445643647,2967.3202314161304,4042.0
5,51.51811784,-0.144228881,"Broadcasting House, Marylebone",25465.443586844296,26992.639642519905,191.8183817306664,5054.0
6,51.53430039,-0.1680743,"Charlbert Street, St. John's Wood",23765.376605300116,28751.169731627422,2262.3762021642106,5557.0
7,51.52834133,-0.170134484,"Lodge Road, St. John's Wood",23639.02229163931,28084.672708070168,1936.2130970474066,5340.0
8,51.5073853,-0.096440751,"New Globe Walk, Bankside",28813.219009397755,25883.913070466282,3714.793885465656,5263.0
9,51.50597426,-0.092754157,"Park Street, Bankside",29073.236006976804,25733.6070493531,4009.908484668778,5324.0
10,51.52395143,-0.122502346,"Brunswick Square, Bloomsbury",26956.713904699835,27680.066320300073,1760.3680919788158,5399.0
11,51.52168078,-0.130431727,"Malet Street, Bloomsbury",26412.90331178326,27413.376565742452,1160.543135870814,5298.0
12,51.51991453,-0.136039674,"Scala Street, Fitzrovia",26028.72160852814,27206.9599765944,739.4323872188688,5194.0
13,51.52994371,-0.123616824,"Belgrove Street , King's Cross",26862.2763457494,28344.692840710777,2005.889856591223,5698.0
14,51.51772703,-0.127854211,"Great Russell Street, Bloomsbury",26603.03541543476,26978.11631260722,1308.7062602314372,5126.0
15,51.52635795,-0.125979294,"Cartwright Gardens , Bloomsbury",26708.570908625552,27941.593157539988,1647.993263839214,5480.0
16,51.5216612,-0.109006325,"Hatton Wall, Holborn",27899.86441996682,27449.411714096408,2625.930253701648,5406.0
17,51.51477076,-0.12221963,"Drury Lane, Covent Garden",27002.544766027015,26659.268355746608,1756.6948632716603,5054.0
18,51.52505093,-0.131161087,"Taviton Street, Bloomsbury",26352.709512971545,27786.995590519422,1264.5907995201258,5431.0
19,51.52773634,-0.135273468,"Drummond Street , Euston",26059.719835237338,28078.452451767545,1249.0061134863329,5482.0
20,51.53007835,-0.13884627,"Hampstead Road (Cartmel), Euston",25805.17446620221,28332.676568866445,1343.7960678888478,5528.0
21,51.5222641,-0.114079481,"Northington Street , Holborn",27546.063038854147,27507.39353710311,2285.946278371159,5385.0
22,51.51943538,-0.119123345,"Red Lion Square, Holborn",27204.117475885403,27183.702422526345,1907.5851737923279,5244.0
23,51.51908011,-0.124678402,"British Museum, Bloomsbury",26819.595121777704,27134.284073330433,1521.3625015303337,5182.0
24,51.5288338,-0.132250369,"Doric Way , Somers Town",26266.37589871687,28205.89076202779,1478.47092338756,
25,51.52728093,-0.11829517,"Ampton Street , Clerkenwell",27239.14714776416,28057.956801558466,2169.204536947593,5551.0
26,51.51382102,-0.107927706,"Bouverie Street, Temple",27997.27389846329,26579.169844115357,2745.8679681407493,5208.0
27,51.52351808,-0.143613641,"Bolsover Street, Fitzrovia",25492.90148773488,27594.473070482403,542.4536815558281,5256.0
28,51.513735,-0.193487,"Hereford Road, Bayswater",22058.72103905573,26419.507656072936,3308.435469803023,4771.0
29,51.52915444,-0.093421615,"Windsor Terrace, Hoxton",28959.704078040668,28311.062933756184,3859.710278500174,5847.0
30,51.52953709,-0.083353323,"Fanshaw Street, Hoxton",29657.202440424328,28371.886189572484,4543.46958999167,5974.0
31,51.52469624,-0.084439283,"Leonard Circus , Shoreditch",29595.95184042104,27831.395315154892,4360.8622863703085,5830.0
32,51.51681603,-0.067827542,"Altab Ali Park, Whitechapel",30771.861011609813,26985.083536635415,5473.885910402462,5998.0
33,51.5341235,-0.129386874,"Pancras Road, King's Cross",26450.02173776251,28799.420572284056,2062.6086515378784,5766.0
34,51.50173726,-0.184980612,"De Vere Gardens, Kensington",22682.26893345738,25099.425029220496,3286.476619054611,4361.0
35,51.49159394,-0.192369256,"Penywern Road, Earl's Court",22197.14345941684,23958.33115584546,4406.271589753026,4462.0
36,51.4973875,-0.197245586,"Abingdon Villas, Kensington",21842.62956840392,24594.486278518132,4261.819346702676,4523.0
37,51.5263778,-0.078130921,"Shoreditch High Street, Shoreditch",30028.801506385178,28029.940272963635,4822.764827808189,6024.0
38,51.52127071,-0.0755789,"Commercial Street, Shoreditch",30220.8348358988,27466.461611275707,4936.432658213319,5976.0
39,51.52001715,-0.083911168,"Sun Street, Liverpool Street",29646.23242248516,27311.83311223137,4353.056618610752,5802.0
40,51.53099181,-0.093903825,"Wenlock Road , Hoxton",28920.918919616845,28514.588394037244,3892.842265647311,5901.0
41,51.52026,-0.157183945,"Crawford Street, Marylebone",24560.29720551378,27208.219075296627,748.3815770214276,5036.0
42,51.522511,-0.162298,"Boston Place, Marylebone",24199.08350158675,27449.70535049963,1157.8436221875138,5150.0
43,51.507131,-0.06691,"Nesham Street, Wapping",30864.00750242491,25909.365776063496,5688.485781338525,5995.0
44,51.52334476,-0.183846408,"Warwick Avenue Station, Maida Vale",22701.356834325547,27505.116137122357,2630.879209987565,5171.0
45,51.51248445,-0.099141408,"Godliman Street, St. Paul's",28611.0019375727,26446.290782694676,3373.6315569749413,5313.0
46,51.50706909,-0.145904427,"Curzon Street, Mayfair",25380.296726437096,25760.573383744602,1329.7990239191909,4699.0
47,51.52867339,-0.087459376,"East Road, Hoxton",29374.808127215947,28268.34778231298,4243.371093630767,5921.0
48,51.52671796,-0.104298194,"Finsbury Library , Finsbury",28212.028008112247,28020.40448773993,3058.7053559322417,5660.0
49,51.52295439,-0.094934859,"Roscoe Street, St. Luke's",28872.66445854804,27618.6060964622,3612.917385657352,5608.0
50,51.5099923,-0.143495266,"Grafton Street, Mayfair",25539.294396581055,26090.0057895653,1026.414038796257,4762.0
51,51.52174785,-0.094475072,"Golden Lane, Barbican",28908.068134707195,27485.216218872607,3630.933440472949,5585.0
52,51.51707521,-0.086685542,"Finsbury Circus, Liverpool Street",29462.245462236577,26979.52030322721,4164.714974408204,5654.0
53,51.52058381,-0.154701411,"Paddington Street, Marylebone",24731.680613666205,27248.58383637332,589.5837368922652,5087.0
54,51.52334672,-0.120202614,"Guilford Street , Bloomsbury",27118.03391083717,27616.893522870116,1894.453710589182,5391.0
55,51.52452699,-0.079248081,"New Inn Yard, Shoreditch",29956.685607036983,27822.012373642036,4715.245305317371,5952.0
56,51.53176825,-0.114329032,"Rodney Street, Angel",27501.49249751326,28564.234249243193,2651.5756181469437,5763.0
57,51.52644828,-0.172190727,"Lisson Grove, St. John's Wood",23501.60217455137,27870.512365601695,1960.340802049577,5251.0
58,51.49738251,-0.089446947,"Great Dover Street, Borough",29327.784052356583,24783.81563846834,4641.152865136048,5225.0
59,51.4907579,-0.106323685,"Cotton Garden Estate, Kennington",28174.999511466303,24016.41063487748,4207.808039479516,5157.0
60,51.53089041,-0.089782579,"Murray Grove , Hoxton",29207.165053877863,28510.76712568206,4159.185421589374,5986.0
61,51.50946212,-0.124749274,"William IV Street, Strand",26842.09757743668,26064.2074423545,1851.8213567863452,4864.0
62,51.52522753,-0.13518856,"Gower Place , Euston",26072.725687008977,27799.509881702863,1051.2652782291495,5477.0
63,51.51795029,-0.108657431,"Holborn Circus, Holborn",27934.748928377085,27037.218970984657,2636.2953282393896,5303.0
64,51.51882555,-0.108028472,"Hatton Garden, Holborn",27975.883856366505,27135.71547686038,2677.3707512349984,5326.0
65,51.52059681,-0.116688468,"Theobalds Road , Holborn",27369.77837920538,27317.25234956472,2083.5020489781614,5278.0
66,51.5262363,-0.134407652,"Euston Road, Euston",26124.05425904969,27913.112125147978,1166.9698120071387,
67,51.53136059,-0.117069978,"Calshot Street , King's Cross",27312.482618213166,28513.985476311267,2467.4125919958697,5780.0
68,51.5154186,-0.098850915,"Newgate Street , St. Paul's",28622.685012119036,26773.222215394053,3338.6057530408666,5637.0
69,51.52352001,-0.108340165,"Farringdon Lane, Clerkenwell",27940.748769831407,27657.389442699117,2702.497111422841,5524.0
70,51.52572618,-0.088486188,"Old Street Station, St. Luke's",29312.126168427203,27938.62493809787,4102.368123508543,5812.0
71,51.48591714,-0.124469948,"Vauxhall Cross, Vauxhall",26928.60964139327,23445.45653509241,3990.373500616995,4865.0
72,51.53219984,-0.105480698,"Torrens Street, Angel",28114.17940086496,28628.108952220617,3209.029646530098,5745.0
73,51.52559505,-0.144083893,"Longford Street, Regent's Park",25454.40633783299,27824.6980049579,753.0393999444703,5311.0
74,51.52341837,-0.124121774,"Russell Square Station, Bloomsbury",26845.85299100174,27617.88337225074,1635.188219162358,5370.0
75,51.52486887,-0.099489485,"Sadlers Sports Centre, Finsbury",28551.054456836515,27823.360884619207,3334.2428854615996,5619.0
76,51.50069361,-0.102091246,"Webber Street , Southwark",28440.263674478454,25129.312465545692,3701.8784370117887,5005.0
77,51.52025302,-0.141327271,"Great Titchfield Street, Fitzrovia",25660.795151854065,27235.27963966105,390.723775321034,5135.0
78,51.514274,-0.111257,"Chancery Lane, Holborn",27764.883450370253,26623.59104396784,2509.2709027801507,5161.0
79,51.50963938,-0.131510949,"Panton Street, West End",26372.2133442208,26071.919678154314,1477.8677086671598,4862.0
80,51.51593725,-0.111778348,"Breams Buildings, Holborn",27723.921653398313,26807.68456629562,2441.1153486797275,5212.0
81,51.50064702,-0.078600401,"Tanner Street, Bermondsey",30071.388216329884,25166.688760450023,5144.632052481184,5551.0
82,51.48947903,-0.115156562,"Sancroft Street, Vauxhall",27565.25411380928,23858.31071630746,3945.4156345005026,4818.0
83,51.51646835,-0.079684557,"Devonshire Square, Liverpool Street",29949.926486471755,26924.740532652737,4653.846379989427,5705.0
84,51.51858757,-0.132053392,"Bayley Street , Bloomsbury",26309.146160072356,27066.39807838868,1010.434127315406,5169.0
85,51.5262503,-0.123509611,"Tavistock Place, Bloomsbury",26880.25453092718,27934.010507958446,1793.45719086611,5476.0
86,51.53301907,-0.139174593,"Harrington Square, Camden Town",25774.07168711716,28659.2380688508,1641.6185446340164,5607.0
87,51.49368637,-0.111014912,"Walnut Tree Walk, Vauxhall",27840.804411571735,24333.767440310883,3747.8281979187846,4815.0
88,51.49889832,-0.100440521,"Borough Road, Elephant & Castle",28560.058774641482,24932.57057324241,3908.997004877126,4980.0
89,51.53440868,-0.109025404,"Cloudesley Road, Angel",27861.884922802274,28867.46738228647,3120.1940066534285,5831.0
90,51.49506109,-0.085814489,"Bricklayers Arms, Borough",29586.760980710766,24532.1625288309,4991.703514166144,5341.0
91,51.5208417,-0.097340162,"Aldersgate Street, Barbican",28711.85571409657,27379.23729185798,3425.329020880662,5556.0
92,51.53095071,-0.078505384,"Falkirk Street, Hoxton",29989.455032214813,28537.96783684948,4909.549649417251,6115.0
93,51.49792478,-0.183834706,"Gloucester Road (North), Kensington",22772.353990946707,24677.27830518331,3492.083393911995,4212.0
94,51.52554222,-0.138231303,"Hampstead Road, Euston",25860.686970928655,27829.139927137498,930.0663149337695,5452.0
95,51.51457763,-0.158264483,"Old Quebec Street, Marylebone",24501.217724067392,26574.19419116134,948.807722919126,4875.0
96,51.49043573,-0.122806861,"Albert Embankment, Vauxhall",27031.225718393092,23951.084524911275,3583.3374082984983,4689.0
97,51.51155322,-0.0929401,"Queen Street, Bank",29044.15284374752,26353.897362781485,3816.457587126916,5399.0
98,51.51340693,-0.076793375,"Jewry Street, Aldgate",30159.545522796747,26589.446435171732,4886.094470318869,5674.0
99,51.50472376,-0.192538767,"Vicarage Gate, Kensington",22149.3001117315,25418.67240390522,3564.616798702641,4530.0
100,51.51159481,-0.077121322,"Crosswall, Tower",30142.07983986527,26387.260706660425,4893.553779696093,5665.0
101,51.51552971,-0.190240716,"Westbourne Grove, Bayswater",22279.113678703347,26624.729339115875,3055.137234925888,4792.0
102,51.51410514,-0.147301667,"Woodstock Street, Mayfair",25263.48044466092,26540.84188495911,548.1876087842116,4950.0
103,51.52600832,-0.096317627,"Finsbury Leisure Centre, St. Luke's",28767.864314984152,27955.841119323013,3575.861698853029,5682.0
104,51.49812559,-0.132102166,"Abbey Orchard Street, Westminster",26363.86513448393,24790.024432691658,2532.629323914267,4493.0
105,51.51563144,-0.132328837,"Soho Square , Soho",26298.423456742647,26737.055752524786,1059.2662265032113,5040.0
106,51.53304322,-0.172528678,"Wellington Road, St. John's Wood",23459.823876755283,28603.58493841588,2383.213571029808,5519.0
107,51.5100172,-0.157275636,"Park Lane , Hyde Park",24582.629842448994,26068.59655627134,1245.8099736826427,4653.0
108,51.51580998,-0.105270275,"Stonecutter Street, Holborn",28175.999262151017,26805.20365072324,2890.9123419028256,5360.0
109,51.49646288,-0.183289032,"Gloucester Road (Central), South Kensington",22814.280114822992,24515.58923690443,3576.342261574925,4190.0
110,51.52451738,-0.158963647,"Park Road (Baker Street), Regent's Park",24424.86521624039,27678.72330902025,1055.0363261376756,5188.0
111,51.51423368,-0.073537654,"Braham Street, Aldgate",30383.107997022773,26687.36218655124,5099.919153557944,5843.0
112,51.51449962,-0.141423695,"Little Argyll Street, West End",25670.36109235484,26595.072625791858,617.1011245742849,4954.0
113,51.49288067,-0.114934001,"Lollard Street, Vauxhall",27570.96473909814,24237.121413501533,3645.398053422506,4704.0
114,51.49582705,-0.13547809,"Rochester Row, Westminster",26135.971606135558,24528.347145162435,2692.9234721394296,4335.0
115,51.52589324,-0.090847761,"Bath Street, St. Luke's",29147.765183571028,27952.930230393336,3944.839838126445,5751.0
116,51.51573534,-0.093080779,"The Guildhall, Guildhall",29022.263000508334,26818.879662801482,3733.027298640888,5517.0
117,51.51891348,-0.156166631,"Baker Street, Marylebone",24634.675376544867,27060.203892951336,664.8414267221351,5010.0
118,51.52111369,-0.078869751,"Norton Folgate, Liverpool Street",29992.91043959814,27442.991913207836,4707.383328733733,5932.0
119,51.52836014,-0.104724625,"St. John Street, Finsbury",28177.70457522478,28202.3215469734,3086.949910409203,5648.0
120,51.49654462,-0.150905245,"Eaton Square, Belgravia",25062.713473174386,24580.995933965227,2517.9908609148583,4178.0
121,51.50069491,-0.094524319,"Borough High Street, The Borough",28965.638349122688,25143.109149435797,4150.519568494983,5142.0
122,51.51700801,-0.09388536,"Wood Street, Guildhall",28962.73039272451,26959.00183941939,3666.0560203342748,5574.0
123,51.49536226,-0.185296516,"Emperor's Gate, South Kensington",22677.920044061946,24389.6923533183,3761.644868811322,4152.0
124,51.5118973,-0.137043852,"Golden Square, Soho",25981.73762471741,26313.308881008736,1032.5573089852971,4869.0
125,51.50950627,-0.075459482,"Tower Gardens , Tower",30263.54573882211,26157.956008252717,5050.947139306086,5740.0
126,51.53300545,-0.136792671,"Eversholt Street , Camden Town",25939.372956013074,28661.929520329722,1699.3473026998424,5700.0
127,51.52364804,-0.074754872,"Bethnal Green Road, Shoreditch",30271.062434497755,27732.430160401767,5013.725181436509,6074.0
128,51.50136494,-0.191462381,"Derry Street, Kensington",22233.262655228653,25046.865138279943,3682.9509526841684,4439.0
129,51.504904,-0.06797,"Wapping High Street, Wapping",30796.962270396907,25659.682557879278,5680.492582979022,
130,51.52326004,-0.104708922,"Clerkenwell Green, Clerkenwell",28193.49258127244,27634.991072155623,2945.803976197893,5562.0
131,51.51196176,-0.097441687,"Queen Victoria Street, St. Paul's",28730.49646318046,26391.210837564868,3501.560596609262,5314.0
132,51.49087475,-0.153319609,"Bourne Street, Belgravia",24910.979645088883,23946.01977735854,3165.723946399905,4060.0
133,51.51227622,-0.157436972,"Green Street, Mayfair",24565.1024012056,26319.619504103932,1062.423939943988,4752.0
134,51.49488108,-0.117974901,"Lambeth Road, Vauxhall",27354.073526716296,24454.2212852418,3340.6193515645855,4616.0
135,51.52096262,-0.085634242,"Finsbury Square , Moorgate",29523.896666549932,27413.880839271093,4237.5146871080215,5778.0
136,51.51530805,-0.147203711,"Chapel Place, Marylebone",25266.891190433424,26674.831819007377,414.29110531930894,5021.0
137,51.49372451,-0.198286569,"West Cromwell Road, Earl's Court",21780.378005383754,24185.215507735527,4561.332148467823,4523.0
138,51.4968865,-0.161203828,"Pont Street, Knightsbridge",24346.64795332114,24601.01177493282,2662.9648084814235,4123.0
139,51.48894022,-0.111435796,"Kennington Cross, Kennington",27825.20067738768,23805.031864270073,4142.353427832849,4874.0
140,51.50074359,-0.202759212,"Ilchester Place, Kensington",21450.612840645015,24958.4207362679,4398.207372921991,4709.0
141,51.48836528,-0.129361842,"Vauxhall Bridge , Pimlico",26581.890039776525,23709.10417044352,3614.15208733309,4356.0
142,51.51494305,-0.11614642,"Portugal Street, Holborn",27423.590758219478,26689.27026531039,2161.7191792723984,5133.0
143,51.49211134,-0.138364847,"Tachbrook Street, Victoria",25946.03281056162,24109.891997078346,3047.482482647346,4281.0
144,51.48478899,-0.110683213,"Kennington Road Post Office, Oval",27889.386239817657,23344.581047967862,4552.220011919218,4989.0
145,51.49705603,-0.168917077,"Holy Trinity Brompton, Knightsbridge",23810.5891915798,24606.443384268176,2893.565987836713,4105.0
146,51.51213691,-0.201554966,"Chepstow Villas, Notting Hill",21503.07742518351,26227.93206772764,3892.0545882842034,4856.0
147,51.49217002,-0.101536865,"Hampton Street, Walworth",28503.350675495545,24182.111907892948,4325.707034343042,4971.0
148,51.51183419,-0.174292825,"Bayswater Road, Hyde Park",23396.299322318955,26241.118356176157,2082.5587393030164,4648.0
149,51.50379168,-0.11282408,"Waterloo Station 3, Waterloo",27686.185231592608,25454.68451113344,2892.4504830994774,4919.0
150,51.49586666,-0.191933711,"Lexham Gardens, Kensington",22215.6484734307,24434.39825823545,4067.8817838595314,4359.0
151,51.49443626,-0.092921165,"New Kent Road, Borough",29095.08904053198,24449.77140727066,4622.80959706826,5203.0
152,51.50039792,-0.193068385,"Wright's Lane, Kensington",22124.412703625756,24936.53429348892,3834.8299550130646,4507.0
153,51.49085368,-0.196170309,"Trebovir Road, Earl's Court",21935.206609723202,23869.468661133636,4655.414688838935,4700.0
154,51.51461995,-0.137841333,"Great Marlborough Street, Soho",25918.673088587268,26614.780720042734,779.6748145915216,4948.0
155,51.50663341,-0.131773845,"Waterloo Place, St. James's",26362.50100370859,25737.05545511158,1719.270726373384,
156,51.49234577,-0.141334487,"Guildhouse Street, Victoria",25739.145969736448,24130.730043574324,2989.736629845124,4220.0
157,51.51760685,-0.121328408,"Southampton Place, Holborn",27056.30344649691,26976.35622539246,1760.8982353514828,5179.0
158,51.4931848,-0.167894973,"Sloane Avenue, Knightsbridge",23892.341113066912,24177.564516152517,3232.408715076888,3974.0
159,51.515607,-0.183118788,"Cleveland Gardens, Bayswater",22773.22680073067,26645.577881856385,2564.149334854524,4832.0
160,51.517932,-0.183716959,"Orsett Terrace, Bayswater",22725.288036223137,26903.193114007852,2580.2706204430065,4923.0
161,51.50185512,-0.159237081,"Seville Street, Knightsbridge",24469.311262372517,25157.178539054265,2101.4038535763525,4296.0
162,51.49395092,-0.147624377,"Eccleston Place, Victoria",25297.831758301036,24298.22128512981,2789.66034612133,4159.0
163,51.50040123,-0.195455928,"Argyll Road, Kensington",21958.631310028723,24932.812404958095,3975.171382493114,4567.0
164,51.51474612,-0.165164288,"Porchester Place, Paddington",24021.829950680054,26580.906043065857,1374.0579433315368,4814.0
165,51.52784273,-0.108068155,"Hardwick Street, Clerkenwell",27947.18936065052,28138.757111110346,2849.133564848714,5589.0
166,51.4916156,-0.186753859,"Collingham Gardens, Earl's Court",22587.04796988808,23970.386222821107,4131.965274574405,4074.0
167,51.49121192,-0.173715911,"Sumner Place, South Kensington",23493.594137462074,23947.98937147777,3621.9052030874645,3893.0
168,51.50486,-0.113001,"Waterloo Roundabout, Waterloo ",27670.83785207216,25573.212370326306,2814.270709210382,4962.0
169,51.512529,-0.115163,"Strand, Strand",27498.767001449465,26422.478182875755,2298.2598516973812,5087.0
170,51.52174384,-0.0811189,"Appold Street, Liverpool Street",29834.981683036167,27508.996164307027,4555.546923528595,5864.0
171,51.51791921,-0.188098863,"Gloucester Terrace, Bayswater",22421.19529349316,26894.229938579752,2884.253462278816,4851.0
172,51.49616092,-0.140947636,"Ashley Place, Victoria",25755.23035083896,24555.827160224348,2572.8387452651805,4414.0
173,51.48985626,-0.141923621,"Warwick Square, Pimlico",25705.264519832665,23852.746842689492,3260.551323107386,4121.0
174,51.5129118,-0.153645496,"North Audley Street, Mayfair",24826.498995956645,26396.958566978137,837.0037614042219,4800.0
175,51.49941247,-0.152317537,"Belgrave Square, Belgravia",24956.59297530714,24897.552762219246,2216.9215993400007,4328.0
176,51.52202903,-0.165842551,"Bell Street , Marylebone",23954.441877073215,27389.915726035513,1378.0062117408004,5080.0
177,51.52071513,-0.14521173,"Portland Place, Marylebone",25389.90450479032,27279.845720994024,212.4258858637219,5142.0
178,51.48805753,-0.140741432,"Alderney Street, Pimlico",25792.447561235196,23654.732783603977,3468.437511870618,4091.0
179,51.51733558,-0.175810943,"South Wharf Road, Paddington",23275.662306600483,26850.494779010274,2037.156554545416,4913.0
180,51.49247977,-0.178433004,"Queen's Gate (South), South Kensington",23162.500888660055,24080.8685520617,3688.6989983120957,4008.0
181,51.5165179,-0.164393768,"Nutford Place, Marylebone",24070.367167811215,26779.349628531636,1266.721813079724,4891.0
182,51.53166681,-0.109914711,"Claremont Square, Angel",27808.066171831946,28560.853931745136,2909.5291669376447,5709.0
183,51.48997562,-0.132845681,"Rampayne Street, Pimlico",26335.367990540297,23882.06786235413,3369.187227047085,4217.0
184,51.50311799,-0.153520935,"Hyde Park Corner, Hyde Park",24862.636565506124,25307.66418383477,1832.9032840436312,4429.0
185,51.51251523,-0.133201961,"Wardour Street, Soho",26246.66557624408,26388.84696556817,1177.6383507608741,4899.0
186,51.50581776,-0.100186337,"Bankside Mix, Bankside",28557.72496362566,25702.77597546109,3540.931180259168,5171.0
187,51.50462759,-0.091773776,"Hop Exchange, The Borough",29145.203255041706,25585.57230269871,4129.245727829951,5272.0
188,51.50724437,-0.106237501,"Milroy Walk, South Bank",28133.527145269793,25850.589483473013,3092.8584012203123,5064.0
189,51.50368837,-0.098497684,"Union Street, The Borough",28681.111657352245,25468.93858407045,3749.6743864086,5140.0
190,51.50556905,-0.111606696,"Stamford Street, South Bank",27765.60151377652,25654.587155840214,2852.849323547802,4962.0
191,51.51048489,-0.082989638,"Great Tower Street, Monument",29737.970508211176,26253.100496596686,4516.840389070762,5523.0
192,51.51492456,-0.066078037,"LMU Commercial Road, Whitechapel",30898.84886103394,26777.877123446873,5608.482589401441,5965.0
193,51.5225965,-0.161113413,"Dorset Square, Marylebone",24281.05272187585,27461.28238846085,1084.2157080387776,5136.0
194,51.51236389,-0.06954201,"Leman Street, Aldgate",30665.933610064356,26486.669029567245,5400.562191987886,5966.0
195,51.51821864,-0.100791005,"West Smithfield Rotunda, Farringdon",28479.940937326726,27081.213960759313,3181.0074825073393,5443.0
196,51.52659961,-0.112432615,"Margery Street, Clerkenwell",27647.908917593173,27992.64345481628,2517.190349099678,5546.0
197,51.518144,-0.06275,"New Road  2, Whitechapel",31120.361707152217,27142.130766259594,5821.674031972191,6098.0
198,51.518154,-0.062697,"New Road 1 , Whitechapel",31124.010664307192,27143.340602869197,5825.334223235349,6098.0
199,51.50135267,-0.153194766,"Grosvenor Crescent, Belgravia",24890.237491409105,25111.852725884382,2017.852191389675,4329.0
200,51.52505151,-0.166304359,"Mallory Street, Marylebone",23913.96560703873,27725.349567996658,1524.6379720372202,5192.0
201,51.49358391,-0.165101392,"Denyer Street, Knightsbridge",24085.22244980572,24226.82307241994,3107.8555600141112,4032.0
202,51.51681444,-0.151926305,"Hinde Street, Marylebone",24934.86752026163,26834.120718239894,443.7832599109649,4972.0
203,51.49464523,-0.158105512,"Cadogan Place, Knightsbridge",24568.06099074187,24357.091644406988,2826.9059980531024,4074.0
204,51.50658458,-0.199004026,"Campden Hill Road, Notting Hill",21695.35106202007,25614.614435797994,3893.1185445940987,4706.0
205,51.50274025,-0.149569201,"Wellington Arch, Hyde Park",25138.05877808138,25272.572347955807,1822.4241833510546,4471.0
206,51.52683806,-0.130504336,"Endsleigh Gardens, Euston",26393.203823922784,27986.969252595358,1416.2525534679141,5479.0
207,51.51906932,-0.088285377,"Moorfields, Moorgate",29345.411337521422,27198.45114545882,4047.981271133678,5670.0
208,51.49094565,-0.181190899,"Old Brompton Road, South Kensington",22975.22214225908,23905.44249415575,3940.505576365656,4012.0
209,51.51615461,-0.082422399,"Wormwood Street, Liverpool Street",29760.816520013992,26884.855040609225,4466.492789566205,5661.0
210,51.48971651,-0.170194408,"St. Luke's Church, Chelsea",23742.306981430607,23787.74027256106,3648.8408111294143,3839.0
211,51.49016361,-0.19039362,"Bramham Gardens, Earl's Court",22338.276382969998,23802.60387005619,4422.508359890582,4168.0
212,51.49066456,-0.166485083,"Chelsea Green, Chelsea",23997.271075051744,23899.65227010267,3443.7113985236956,3908.0
213,51.49481649,-0.13045856,"Horseferry Road, Westminster",26487.392321581137,24424.81925447579,2916.2163702961834,4402.0
214,51.50275704,-0.155349725,"Knightsbridge, Hyde Park",24736.68000473283,25264.3083483059,1908.2860148592886,4386.0
215,51.49148474,-0.090220911,"Rodney Road , Walworth",29291.16292795076,24126.322187607613,4970.781971444638,5228.0
216,51.51476963,-0.188129731,"Whiteley's, Bayswater",22427.729059000238,26543.7998369064,2922.3072335453603,4712.0
217,51.50935342,-0.196422,"Notting Hill Gate Station, Notting Hill",21867.011007538502,25927.050341596274,3622.9364357191457,4757.0
218,51.50844614,-0.131961389,"Charles II Street, West End",26344.33351660073,25938.379694070056,1553.769891819942,4820.0
219,51.52891573,-0.115480888,"Great Percy Street, Clerkenwell",27429.747072549217,28244.846582330967,2424.6453973722987,5695.0
220,51.50742485,-0.134621209,"St. James's Square, St. James's",26162.586524614133,25820.05637588681,1534.0354868370512,4758.0
221,51.50654321,-0.123179697,"Whitehall Place, Strand",26959.382269404217,25742.287880121585,2137.215246793728,4834.0
222,51.50669284,-0.103137426,"Poured Lines, Bankside",28350.327786800946,25794.808940249524,3314.0611249909293,5133.0
223,51.49396755,-0.17873226,"Queen's Gate (Central), South Kensington",23137.601000017457,24245.859666164237,3570.500774804549,4072.0
224,51.51501025,-0.112753217,"Carey Street, Holborn",27658.917981898587,26702.815150036913,2391.185900831856,5161.0
225,51.50777049,-0.130699733,"Pall Mall East, West End",26433.83692538034,25865.453779992153,1668.028578904656,4769.0
226,51.53450449,-0.106992706,"Liverpool Road (N1 Centre), Angel",28002.637049898185,28881.773384564003,3244.691627651976,5792.0
227,51.49571828,-0.110889274,"Kennington Road  , Vauxhall",27843.694647442288,24560.030787176656,3586.893187741722,4770.0
228,51.51838043,-0.073438925,"Fashion Street, Whitechapel",30377.81427371179,27148.84369955337,5079.239686730555,5934.0
229,51.5084448,-0.067176443,"Vaughan Way, Wapping",30841.650424001273,26055.029249027517,5638.121808614656,5945.0
230,51.5233534,-0.175116099,"Frampton Street, Paddington",23307.19143398234,27521.152929179458,2038.3297870939177,5287.0
231,51.52443845,-0.138019439,"Warren Street Station, Euston",25878.514017869544,27706.725095002184,847.8638067004014,5366.0
232,51.50545935,-0.10569204,"Colombo Street, Southwark",28176.533909861086,25652.996262458124,3215.4998916885233,5068.0
233,51.52200801,-0.151359288,"Beaumont Street, Marylebone",24959.62450440682,27412.874518474127,469.84659805514553,5186.0
234,51.49096258,-0.139625122,"Gloucester Street, Pimlico",25861.762017617395,23979.873480319715,3158.5568575478233,4165.0
235,51.51611887,-0.128585022,"Earnshaw Street , Covent Garden",26556.88900104718,26797.919265119504,1290.9347862196441,5100.0
236,51.4853572,-0.142207481,"Grosvenor Road, Pimlico",25698.253815963937,23351.750737470662,3757.409157860325,3998.0
237,51.52285301,-0.099994052,"Berry Street, Clerkenwell",28521.86444211108,27598.198038463917,3263.0755689063676,5565.0
238,51.530052,-0.168314,"St. John's Wood Church, Regent's Park",23760.579878587945,28278.138427928177,1945.0616932904195,
239,51.50645179,-0.170279555,"Triangle Car Park, Hyde Park",23689.850409510123,25649.31003302327,2158.3925368739556,4451.0
240,51.49859784,-0.096191134,"Harper Road, Borough",28855.97861931054,24906.810683153482,4172.480091238377,5070.0
241,51.489932,-0.162727,"Royal Avenue 1, Chelsea",24260.303174573783,23824.703028913267,3424.4854397415234,3896.0
242,51.518908,-0.079249,"Brushfield Street, Liverpool Street",29973.032359172532,27196.93074743802,4675.363836585514,5913.0
243,51.5046364,-0.116542278,"Jubilee Gardens, South Bank",27425.625896785612,25542.004578270862,2629.1683483153515,4894.0
244,51.53404294,-0.086379717,"Shoreditch Park, Hoxton",29434.09785617239,28867.639547906438,4501.8958076535155,6086.0
245,51.53051587,-0.106408455,"Chadwell Street, Angel",28054.658003486868,28439.109454099467,3069.168698724717,5661.0
246,51.52557531,-0.179592915,"Clifton Road, Maida Vale",22990.36303309661,27760.591111876915,2404.5931041174167,5248.0
247,51.51362054,-0.116764211,"Houghton Street, Strand",27384.49685233888,26541.044332168443,2156.055734404192,5049.0
248,51.52248185,-0.154907218,"Westminster University, Marylebone",24712.072525720054,27459.37158553055,694.5638209817618,5177.0
249,51.50143293,-0.178656971,"Kensington Gore, Knightsbridge",23122.162105157244,25076.47738576462,2963.799939584593,4303.0
250,51.50494561,-0.123247648,"Embankment (Horse Guards), Westminster",26959.222872908387,25564.442605696182,2253.3094644233915,
251,51.5136846,-0.135580879,"Broadwick Street, Soho",26078.22260662538,26514.723245935893,967.3628965538586,
252,51.5134891,-0.191351186,"Princes Square, Bayswater",22207.64805657661,26395.814570272894,3167.8139349486296,
253,51.49874469,-0.103132904,"LSBU (Borough Road), Elephant & Castle",28373.559763525438,24910.631424274616,3767.45291601947,
254,51.51422502,-0.080660083,"St. Mary Axe, Aldgate",29888.76477003639,26673.40672730413,4608.50047435797,
255,51.52644342,-0.109256828,"Tysoe Street, Clerkenwell",27868.730897602363,27980.958846588648,2720.5533058248507,
256,51.51595344,-0.169249375,"Southwick Street, Paddington",23734.92311613822,26708.11253002289,1609.464072194945,
257,51.50102668,-0.180246101,"Queen's Gate (North), Kensington",23012.951782749777,25028.539331633976,3076.7895526904936,
258,51.49206037,-0.132224622,"Regency Street, Westminster",26372.580926842813,24115.085095595365,3160.731216414788,
259,51.49320445,-0.144132875,"Belgrave Road, Victoria",25542.39270402737,24221.322464993078,2876.8783766954175,
260,51.50082346,-0.089740764,"Empire Square, The Borough",29297.391255812196,25166.06797592432,4436.3245808302,
261,51.4863434,-0.122492418,"Kennington Lane Rail Bridge, Vauxhall",27064.739916949053,23496.396466808248,4002.10093430123,
262,51.53583617,-0.156285395,"London Zoo, Regents Park",24578.988617813986,28942.567374621314,1989.5202068747249,
263,51.50144456,-0.110699309,"Baylis Road, Waterloo",27840.44098140899,25197.386985374003,3167.5217699337736,
264,51.50613324,-0.114686385,"Belvedere Road, South Bank",27550.181436002487,25711.83744122993,2638.4811953019675,
265,51.49671237,-0.20528437,"Warwick Road, Olympia",21286.283663454247,24505.66289358199,4771.715299221046,
266,51.52004497,-0.092176447,"Barbican Centre, Barbican",29072.52978307102,27299.93771667473,3779.5428809589216,
267,51.50930161,-0.084985356,"Lower Thames Street, Monument",29602.88094758542,26117.840149396303,4411.902528556174,
268,51.50315739,-0.191496313,"Kensington Church Street, Kensington",22225.979209035824,25246.208820436354,3582.5757036284626,
269,51.5034938,-0.07962099,"Tooley Street, Bermondsey",29992.217670623795,25481.515624083084,4960.570751675229,
270,51.51862243,-0.176645823,"North Wharf Road, Paddington",23214.148948882124,26992.206734127103,2086.985676790463,
271,51.490083,-0.162418,"Royal Avenue 2, Chelsea",24281.340840531848,23842.039687213633,3401.61688688831,
272,51.49580589,-0.127575233,"Smith Square, Westminster",26684.795021676735,24540.002721894038,2900.3928577122956,4480.0
273,51.51906446,-0.059642081,"Royal London Hospital, Whitechapel",31333.348146055243,27250.24218437195,6036.5915345475005,6158.0
274,51.51440928,-0.118478757,"Kingsway, Covent Garden",27263.2315800308,26625.725821427972,2017.9265255174125,5028.0
275,51.49914063,-0.112031483,"Lambeth North Station, Waterloo",27754.560175935912,24938.70096585885,3263.287431620445,4802.0
276,51.5272947,-0.174653609,"St. John's Wood Road, St. John's Wood",23328.34760056746,27960.405899893638,2155.118356844837,5295.0
277,51.52367314,-0.128377673,"Bedford Way, Bloomsbury",26549.783148637478,27638.661107383814,1366.735435196103,5351.0
278,51.49236962,-0.147478734,"Elizabeth Bridge, Victoria",25312.397785403227,24122.566048363253,2965.345898815427,4084.0
279,51.50923022,-0.151296092,"South Audley Street, Mayfair",24999.92484910933,25991.518613266497,1136.4073693625764,4630.0
280,51.51678023,-0.175488803,"Winsland Street, Paddington",23299.561359394313,26789.272076749854,2021.554909452489,4897.0
281,51.48483991,-0.138089062,"Claverton Street, Pimlico",25985.760590559163,23301.4728047823,3848.1959472905555,4122.0
282,51.49888404,-0.165471605,"Montpelier Street, Knightsbridge",24044.735205925143,24815.79151063561,2595.2694060947347,4168.0
283,51.49815779,-0.209494128,"Kensington Olympia Station, Olympia",20990.033228533008,24659.30000512532,4946.179234741059,4823.0
284,51.488226,-0.135635511,"St. George's Square, Pimlico",26146.578756784234,23682.493746619293,3509.2956353615486,4160.0
285,51.50029631,-0.092762704,"Swan Street, The Borough",29089.104351793183,25101.953345211776,4278.931261716962,5157.0
286,51.49363156,-0.190603326,"Knaresborough Place, Earl's Court",22314.175912110702,24188.036828705313,4161.480253738199,4195.0
287,51.49612799,-0.106000855,"Geraldine Street, Elephant & Castle",28181.959862647345,24614.381501599535,3798.684348451906,4971.0
288,51.50227992,-0.074189225,"Curlew Street, Shad Thames",30372.879333223653,25356.388996583846,5361.242565770678,5645.0
289,51.49398524,-0.136928582,"Vincent Square, Westminster",26040.46695743216,24320.890935619333,2864.6287478576373,4283.0
290,51.50501351,-0.172729559,"Serpentine Car Park, Hyde Park",23523.759466798263,25485.0583936123,2391.7167727246992,4368.0
291,51.51475963,-0.148105415,"Marylebone Lane, Marylebone",25205.84882548114,26612.23839077496,484.66723818397793,4959.0
292,51.50295379,-0.158456089,"Albert Gate, Hyde Park",24520.45976653305,25280.76422955483,1967.6647757996186,4366.0
293,51.51211869,-0.16209757,"Cumberland Gate, Hyde Park",24242.032671453097,26293.95914122634,1321.8799516546785,4744.0
294,51.48677988,-0.115853961,"Kennington Lane Tesco, Vauxhall",27524.55012986109,23556.799129557417,4173.952630173046,4889.0
295,51.51816295,-0.135025698,"Rathbone Street, Fitzrovia ",26104.060317787807,27013.898846200987,808.5118636534604,5142.0
296,51.50990837,-0.187842717,"Black Lion Gate, Kensington Gardens",22461.043500112326,26003.4995390673,3038.0163098572916,4561.0
297,51.49907558,-0.085666316,"Long Lane , Bermondsey",29585.368740115693,24979.0189981664,4777.108772853735,5317.0
298,51.50963123,-0.119047563,"Embankment (Savoy), Strand",27237.414017190473,26093.178511846316,2178.787198815188,4985.0
299,51.4908679,-0.116911864,"Black Prince Road, Vauxhall",27439.376802771207,24009.676816965657,3749.241434646834,4744.0
300,51.51918144,-0.140485596,"Foley Street, Fitzrovia",25722.23836412393,27117.555952442723,424.3367871977553,5112.0
301,51.53088935,-0.176770502,"Grove End Road, St. John's Wood",23171.487944574998,28356.63232838156,2477.0512753890325,5411.0
302,51.51734403,-0.138072691,"Wells Street, Fitzrovia ",25894.903097681585,26917.41216318638,619.8638971167376,5116.0
303,51.50088934,-0.083159352,"Tyers Gate, Bermondsey",29754.15055265336,25185.344810376206,4844.434192266952,5460.0
304,51.52536703,-0.153463612,"The Tennis Courts, Regent's Park",24804.15542198217,27782.861777219485,853.1177679070654,5297.0
305,51.49768448,-0.141943703,"Cardinal Place, Victoria",25681.762464154715,24723.558720616886,2395.1147121464764,4344.0
306,51.49679128,-0.093913472,"Dickens Square, Borough",29019.359978009423,24709.958151537838,4415.432090830139,5133.0
307,51.51004801,-0.138846453,"Sackville Street, Mayfair",25861.8440072863,26104.400769930537,1133.1789773160608,4832.0
308,51.52702563,-0.088542771,"Baldwin Street, St. Luke's",29304.422740480746,28083.078880027897,4127.263796137338,5830.0
309,51.49357351,-0.139956043,"Queen Mother Sports Centre, Victoria",25831.39968713031,24269.74117414953,2868.0005651233296,4340.0
310,51.49785559,-0.081608045,"Bermondsey Street, Bermondsey",29870.705033967766,24850.681088267447,5089.803214732552,5403.0
311,51.526293,-0.073955,"Palissy Street, Shoreditch",30318.823767721886,28028.127540692076,5107.180375177265,6109.0
312,51.523196,-0.083067,"Clifton Street, Shoreditch",29695.553325387213,27666.99651829418,4434.588949454431,5840.0
313,51.49652013,-0.101384068,"Ontario Street, Elephant & Castle",28501.40809505075,24666.310955736175,4014.947388939042,4998.0
314,51.50908747,-0.129697889,"St. Martin's Street, West End",26499.6408127084,26013.737882979534,1611.044908740186,4833.0
315,51.53266186,-0.099981142,"Graham Street, Angel",28494.420113043336,28689.4027824199,3574.3476368353686,5822.0
316,51.53114,-0.086016,"New North Road 1, Hoxton",29467.782135359244,28545.363749618846,4416.27624008187,5977.0
317,51.53095,-0.085603,"New North Road 2, Hoxton",29496.99105642506,28524.977147652506,4437.21456711195,5984.0
318,51.53589283,-0.160854428,"Prince Albert Road, Regent's Park",24261.839930643095,28940.890809538338,2123.4927131324757,5625.0
319,51.51641749,-0.179135079,"Eastbourne Mews, Paddington",23047.488060276257,26742.614592345577,2277.772377759988,4857.0
320,51.52085887,-0.089887855,"Bunhill Row, Moorgate",29228.99741986656,27394.623649239453,3942.0094681617984,5662.0
321,51.49334336,-0.194757949,"Nevern Place, Earl's Court",22026.459438379927,24148.851994954195,4398.525415358248,4677.0
322,51.50860544,-0.193764092,"Palace Gardens Terrace, Notting Hill",22053.573017060276,25848.391714334284,3474.0098493377745,4653.0
323,51.505044,-0.115851,"Concert Hall Approach 1, South Bank",27472.450463362664,25588.583217094274,2640.4622484332317,4919.0
324,51.51196803,-0.120718759,"Tavistock Street, Covent Garden",27114.727499978428,26350.15419649027,1959.9296113629352,4986.0
325,51.504942,-0.115533,"Concert Hall Approach 2, South Bank",27494.819627721125,25577.80474653447,2664.9984857437885,4916.0
326,51.51108452,-0.197524944,"Pembridge Villas, Notting Hill",21785.702668027894,26117.741229498148,3644.723807198248,4782.0
327,51.51175646,-0.119643424,"Wellington Street , Strand",27189.97554855405,26328.535770272283,2037.7977266647329,4960.0
328,51.5333196,-0.111781191,"Risinghill Street, Angel",27673.8165683775,28741.37388123959,2893.799226481509,5747.0
329,51.51444134,-0.087587447,"Bank of England Museum, Bank",29407.306253903254,26684.88098842281,4128.084178147849,5532.0
330,51.50810309,-0.12602103,"Craven Street, Strand",26757.68679438476,25910.76101260798,1874.4474790375689,
331,51.53692216,-0.150181444,"London Zoo Car Park, Regent's Park",24999.412900761366,29074.070183603413,2008.6469547522959,5638.0
332,51.528246,-0.10102611,"Goswell Road (City Uni), Finsbury",28434.669851718325,28196.279342970607,3325.860024766629,5722.0
333,51.48802358,-0.166878535,"Flood Street, Chelsea",23977.30482351147,23605.1723791431,3725.0480411961316,3801.0
334,51.50013942,-0.113936001,"Lower Marsh, Waterloo",27619.459633687104,25046.40107400916,3090.7040109531836,4819.0
335,51.51217033,-0.150481272,"Grosvenor Square, Mayfair",25048.22146806185,26320.020522885694,807.7563664165322,4810.0
336,51.51196,-0.142783033,"St. George Street, Mayfair",25583.179833101298,26310.157002864435,828.0382153970794,4793.0
337,51.5017154373867,-0.1798541843891,"Queen's Gate, Kensington Gardens",23038.257389685285,25105.83701065174,3006.5242173383695,4285.0
338,51.529423,-0.097122,"Macclesfield Rd, St Lukes",28702.166248886788,28334.25349750361,3624.277758155704,5773.0
339,51.486965,-0.116625,"Vauxhall Street, Vauxhall",27470.46990488439,23576.01452322604,4129.013107701485,4856.0
340,51.49459148,-0.134234258,"Greycoat Street , Westminster",26225.845460920027,24393.097774901515,2849.738893033619,4370.0
341,51.506767,-0.123702,"Northumberland Avenue, Strand",26922.48451784764,25766.25347971529,2093.465011313713,4815.0
342,51.486575,-0.117286,"Oval Way, Lambeth",27425.67807868043,23531.448318147595,4143.81820513277,4902.0
343,51.494412,-0.173881,"South Kensington Station, South Kensington",23473.247663285598,24303.69635917645,3329.390413588211,4061.0
344,51.520994,-0.139016,"Howland Street, Fitzrovia",25819.104184251235,27321.787437812687,570.3352941632997,5208.0
345,51.51643491,-0.124332175,"High Holborn , Covent Garden",26851.16796454444,26840.63536485136,1571.7954344900227,5174.0
346,51.49782999,-0.135440826,"Butler Place, Westminster",26132.882683536664,24751.22926390366,2481.0084477579735,4449.0
347,51.49675303,-0.138733562,"Howick Place, Westminster",25907.296440663675,24625.603644656803,2536.3179648834116,4394.0
348,51.50391972,-0.11342628,"Waterloo Station 2, Waterloo",27644.00951185888,25467.850262703345,2850.236808039826,4904.0
349,51.536264,-0.133952,"Royal College Street, Camden Town",26127.21732362581,29029.45137521354,2110.8615582689386,5833.0
350,51.5291212008901,-0.171185284853,"Lord's, St. John's Wood",23563.93898035535,28169.606666097097,2044.5927713989106,5373.0
351,51.519656,-0.132339,"Alfred Place, Bloomsbury",26286.289830300942,27184.749446350528,992.0898296623794,5214.0
352,51.530344,-0.100168,"City Road, Angel",28488.152056458377,28431.216523241746,3460.580867908844,5779.0
353,51.5109192966489,-0.1511263847351,"Millennium Hotel, Mayfair",25006.95808706651,26179.7176153982,953.9471554268803,4727.0
354,51.5173721,-0.1642075,"Harrowby Street, Marylebone",24080.9113724426,26874.699731982517,1236.544072585692,4910.0
355,51.50024195,-0.15934065,"Harriet Street, Knightsbridge",24466.633986087778,24977.540615743055,2268.5396864627232,4237.0
356,51.520205,-0.174593,"Paddington Green, Paddington",23352.231401624027,27171.813039768982,1948.5175410202978,5085.0
357,51.49775,-0.10988,"King Edward Walk, Waterloo",27907.94016687022,24787.8572710772,3478.0728293649504,4795.0
358,51.515208,-0.117863,"Sardinia Street, Holborn",27303.685838795704,26715.678332600888,2039.0044717928597,5146.0
359,51.49980661,-0.176415994,"Prince Consort Road, Knightsbridge",23282.26219123788,24899.43164706786,2975.9542230368615,
360,51.50402793,-0.11386435,"Waterloo Station 1, Waterloo",27613.285755908655,25479.104059958976,2818.5738938872705,
361,51.50194596,-0.194392952,"Kensington Town Hall, Kensington",22028.196389610617,25106.476936938154,3824.098632135422,4600.0
362,51.49188409,-0.125674815,"Millbank House, Pimlico",26827.92978629796,24107.10225154218,3350.052657934392,4456.0
363,51.50535447,-0.113656543,"Waterloo Bridge, South Bank",27623.909075917603,25627.046059872635,2745.8184699435,5020.0
364,51.49559291,-0.179077626,"Natural History Museum, South Kensington",23109.119744479292,24426.076364633947,3446.8131358522587,4102.0
365,51.51431171,-0.200838199,"Turquoise Island, Notting Hill",21546.882726479656,26471.092417802574,3802.4157801949145,4916.0
366,51.50686435,-0.150666888,"Stanhope Gate, Mayfair",25050.254488501116,25729.431120711,1381.0256676401605,4573.0
367,51.51953043,-0.13577731,"Charlotte Street, Fitzrovia",26048.018913017848,27164.69470077587,753.0065316278034,5172.0
368,51.50935171,-0.14744969,"Farm Street, Mayfair",25266.59360478881,26011.786452834698,1076.5810126339293,4662.0
369,51.51310333,-0.13121385,"Frith Street, Soho",26382.99586625163,26457.792618096835,1253.8692311807297,4944.0
370,51.496481,-0.192404,"Marloes Road, Kensington",22181.304195509176,24501.93411123092,4050.528262419257,4385.0
371,51.51352755,-0.130110822,"Moor Street, Soho",26458.3535888014,26506.940864267148,1296.8156240859753,4959.0
372,51.49369988,-0.121394101,"Fire Brigade Pier, Vauxhall",27120.017285474503,24316.71974063819,3315.9701252310747,4623.0
373,51.51070161,-0.121723604,"Southampton Street, Strand",27048.593529025078,26207.48088150422,1958.6707267564934,4916.0
374,51.51013066,-0.155757901,"Upper Grosvenor Street, Mayfair",24687.66868377343,26083.872630833095,1175.4517401404507,4728.0
375,51.521776,-0.068856,"Buxton Street 1, Shoreditch",30685.916010346846,27534.965857760893,5405.496302144816,6087.0
376,51.51066202,-0.142345694,"Clifford Street, Mayfair",25617.203035492086,26166.5339231634,974.7678038441435,4792.0
377,51.49942855,-0.179702476,"Imperial College, Knightsbridge",23055.118131577736,24851.693616269185,3167.850125160022,4228.0
378,51.51733427,-0.103604248,"Snow Hill, Farringdon",28287.239811750827,26977.768203045038,2990.3274134379,5427.0
379,51.524826,-0.176268,"Aberdeen Place, St. John's Wood",23223.16924315691,27682.979952941212,2159.3907349525216,5345.0
380,51.492462,-0.159919,"Cadogan Gardens, Sloane Square",24448.237146348576,24111.051016732672,3095.9998859423804,3987.0
381,51.51809,-0.163609,"Shouldham Street, Marylebone",24120.446504054504,26955.605144175497,1185.8941661928889,4943.0
382,51.51348,-0.17977,"Devonshire Terrace, Bayswater",23011.54878183501,26414.73557246258,2384.3837628565866,4801.0
383,51.502319,-0.200742,"Holland Park, Kensington",21586.362658572703,25137.119453716063,4193.88912759355,4679.0
384,51.52261762,-0.071653961,"Brick Lane Market, Shoreditch",30489.273808071972,27623.469451131095,5217.893731751327,6054.0
385,51.517703,-0.154106,"George Street, Marylebone",24781.088007771294,26929.149865206477,541.633499367871,4982.0
386,51.528187,-0.075375,"Columbia Road, Weavers",30214.744402087177,28236.230829665175,5048.151637757574,6120.0
387,51.52289229,-0.171681991,"Penfold Street, Marylebone",23546.790400965314,27475.806393195962,1794.5794937738117,5204.0
388,51.51689296,-0.158249929,"George Place Mews, Marylebone",24495.744689186424,26831.789002272446,843.0342458760101,4947.0
389,51.50204238,-0.184400221,"Palace Gate, Kensington Gardens",22721.723439130874,25134.367740521877,3233.9237997100904,4355.0
390,51.49418566,-0.18267094,"Gloucester Road Station, South Kensington",22863.48935682513,24263.324938447884,3729.5497390992055,4114.0
391,51.512303,-0.159988,"Speakers' Corner 2, Hyde Park",24387.95092399478,26318.142821918853,1192.6438689024812,4750.0
392,51.51222,-0.160785,"Speakers' Corner 1, Hyde Park",24332.860220665476,26307.51863405088,1241.8844786598947,4735.0
393,51.51994326,-0.170704337,"Paddington Green Police Station, Paddington",23622.839870601645,27149.43603810729,1677.2304847063872,4992.0
394,51.493146,-0.099828,"Strata, Southwark",28619.202180244116,24293.763268303737,4339.49699884274,5080.0
395,51.519968,-0.169774,"Edgware Road Station, Paddington",23687.338501444145,27153.802974151768,1612.94961747476,5031.0
396,51.49337264,-0.09968067,"Walworth Road, Southwark",28628.778518596344,24319.241230920044,4330.495359687238,5087.0
397,51.488105,-0.110121,"Cleaver Street, Kennington",27918.910730634845,23714.47537631521,4271.312747365684,5052.0
398,51.485821,-0.149004,"Chelsea Bridge, Pimlico",25224.899447804826,23391.387505790655,3697.2353535704774,3914.0
399,51.504043,-0.105312,"Southwark Station 1, Southwark",28206.99708303326,25496.118472398754,3315.1927059805735,5015.0
400,51.504044,-0.104778,"Southwark Station 2, Southwark",28244.067607055826,25497.189705882076,3347.248738393614,5048.0
401,51.49456127,-0.15393398,"Eaton Square (South), Belgravia",24857.970240462862,24355.049553660472,2768.1807526141206,4095.0
402,51.490491,-0.149186,"Ebury Bridge, Pimlico",25199.122907468307,23910.580238305818,3178.8687110204073,4031.0
403,51.533379,-0.139159,"Harrington Square 2, Camden Town",25774.13500861058,28699.30609007328,1680.0295748274825,5617.0
404,51.493072,-0.129925,"Vincent Street, Pimlico",26529.401233921046,24231.700969948346,3109.9518438456194,4355.0
405,51.51397065,-0.09294031,"Cheapside, Bank",29037.129279566463,26622.822124397935,3767.006228093368,5435.0
406,51.499917,-0.174554,"Exhibition Road, South Kensington",23411.239565216456,24914.934991624003,2878.3868299539686,4194.0
407,51.48902,-0.17524,"South Parade, Chelsea",23393.831123485215,23701.50946465254,3885.4802117029512,3889.0
408,51.534474,-0.122203,"Crinan Street, King's Cross",26947.44000424689,28851.182061459083,2413.872405411102,5777.0
409,51.496957,-0.173894,"Exhibition Road Museums, Knightsbridge",23465.281137388316,24586.792590838653,3101.2500274582653,4239.0
410,51.524564,-0.116279,"Wren Street, Holborn",27386.832753593364,27759.312922674086,2193.1973413689843,5455.0
411,51.488852,-0.105593,"Kennington Station, Kennington",28231.230140003812,23805.703731965943,4401.251320610532,5088.0
412,51.51824,-0.11655,"Red Lion Street, Holborn",27386.137387217852,27055.31713661799,2087.4509619434625,5268.0
413,51.488124,-0.120903,"Vauxhall Walk, Vauxhall",27170.04459807949,23697.31051712777,3872.596254125172,4819.0
414,51.5338,-0.118677,"Killick Street, Kings Cross",27194.001181174885,28782.488697705237,2542.233085318992,5817.0
415,51.483145,-0.113134,"Kennington Oval, Oval",27723.88046450379,23157.306398804736,4618.414667063476,5001.0
416,51.495656,-0.114605,"Sail Street, Vauxhall",27585.858382017526,24546.449332788732,3418.8990436272497,4682.0
417,51.510101,-0.211358,"Walmer Road, Notting Hill",20828.1413989445,25984.766893780703,4604.878470135714,5028.0
418,51.515256,-0.058641,"Philpot Street, Whitechapel",31414.067222127895,26828.417684414802,6120.628804119699,6129.0
419,51.52568,-0.055312,"Bethnal Green Gardens, Bethnal Green",31614.304809760157,27994.159131948865,6380.060062446006,6362.0
420,51.52388,-0.065076,"Cheshire Street, Bethnal Green",30942.052168418944,27775.9542828915,5684.905824172963,6191.0
421,51.528936,-0.055894,"York Hall, Bethnal Green",31564.292640400323,28355.295970914158,6392.259211899808,6438.0
422,51.493381,-0.007542,"Jubilee Crescent, Cubitt Town",35027.01066875129,24490.32466252477,10068.895241809274,6081.0
423,51.50623,-0.02296,"Fishermans Walk West, Canary Wharf",33917.751091878454,25890.651650313084,8701.56630220718,5638.0
424,51.511088,-0.057159,"Shadwell Station, Shadwell",31529.241854073975,26367.48420071861,6271.812164047973,6050.0
425,51.515975,-0.053177,"Jubilee Street, Stepney",31791.186228181963,26918.47863770803,6494.45553090421,6142.0
426,51.504719,-0.063531,"Hermitage Court, Wapping",31105.680823623843,25647.248120641598,5982.78013404568,6075.0
427,51.505697,-0.070542,"St Katharines Way, Tower",30616.077221422194,25743.187767136114,5484.536855813219,5935.0
428,51.508447,-0.055167,"Garnet Street, Shadwell",31675.324529544567,26077.363084286597,6455.960138941309,6088.0
429,51.487679,-0.021582,"Napier Avenue, Millwall",34069.20144424151,23829.569955899875,9355.964492177865,6036.0
430,51.49447,-0.014409,"East Ferry Road, Cubitt Town",34546.8713360806,24598.508724888467,9577.118678642228,5973.0
431,51.538071,-0.144664,"Parkway, Camden Town",25378.950643475793,29211.56774316114,2125.1929959272543,5661.0
432,51.542138,-0.145393,"Castlehaven Road, Camden Town",25316.905076341107,29662.720459219214,2574.901717078012,5849.0
433,51.504749,-0.057544,"Wapping Lane, Wapping",31521.236230980372,25661.60131579652,6383.669774564418,6128.0
434,51.535179,-0.03338,"Gun Makers Lane, Old Ford",33107.809955059405,29091.54694034395,8061.830971921399,6498.0
435,51.516196,-0.029138,"Burdett Road, Mile End",33459.00168854659,26987.732570274355,8160.675788900046,5846.0
436,51.516,-0.038775,"Aston Street, Stepney",32790.71363423133,26947.955587061268,7493.079793675514,5874.0
437,51.541603,-0.138853,"Bonny Street, Camden Town",25772.0877186624,29614.727656805277,2570.7625902239643,5890.0
438,51.534776,-0.071881,"Thurtle Road, Haggerston",30437.869022559782,28975.60335607981,5474.676346085345,6310.0
439,51.51417,-0.052099,"St. Mary and St. Michael Church, Stepney",31871.35285784572,26719.67520184684,6582.718342101079,6025.0
440,51.53558,-0.08249,"Pitfield Street (North),Hoxton",29699.484233804862,29045.696003330377,4816.411904982187,6146.0
441,51.534464,-0.076341,"Whiston Road, Haggerston",30129.352245754184,28932.748290954944,5170.72644752996,6225.0
442,51.523538,-0.030556,"Southern Grove, Bow",33338.59706061066,27801.831685560726,8071.2950344880355,6106.0
443,51.521564,-0.022694,"Cantrell Road, Bow",33890.11936114213,27596.953977445402,8606.248316904188,6159.0
444,51.513757,-0.020467,"Lindfield Street, Poplar",34068.167192863155,26732.657398667507,8776.418512146767,5872.0
445,51.530535,-0.025492,"Mostyn Grove, Bow",33669.006958099984,28589.67471404132,8503.728394232608,6443.0
446,51.533283,-0.028155,"Hewison Street, Old Ford",33475.994706941216,28890.38809510434,8373.36532059212,6469.0
447,51.529452,-0.027616,"Malmesbury Road, Bow",33524.88197907372,28465.222164252977,8340.454526936765,6340.0
448,51.496137,-0.019355,"Millharbour, Millwall",34198.404493672104,24774.644353230804,9195.190377880872,5880.0
449,51.498125,-0.011457,"Castalia Square, Cubitt Town",34740.80931020071,25010.666388427228,9667.663107853508,5973.0
450,51.499041,-0.020157,"Lightermans Road, Millwall",34133.976573549764,25096.18692429355,9056.749437148257,5767.0
451,51.489096,-0.009205,"Stebondale Street, Cubitt Town",34924.495601879025,24010.50751794214,10105.520382738523,6242.0
452,51.49109,-0.018716,"Spindrift Avenue, Millwall",34257.97357614932,24214.40289120286,9408.568089536388,6004.0
453,51.521889,-0.04667,"Stepney Green Station, Stepney",32225.254330301366,27588.41074696192,6944.375687582222,6135.0
454,51.527152,-0.058005,"Pott Street, Bethnal Green",31423.083909652953,28152.9461128861,6216.067569381646,6347.0
455,51.5128711,-0.0389866,"Flamborough Street, Limehouse",32785.35589767023,26599.492262405838,7502.3289936974215,5821.0
456,51.487129,-0.009001,"Saunders Ness Road, Cubitt Town",34944.61505468443,23792.07874432762,10193.20135893453,6200.0
457,51.509843,-0.02377,"Thornfield House, Poplar",33850.6646598691,26291.054134521546,8588.76712925094,5705.0
458,51.51328,-0.047784,"Albert Gardens, Stepney",32173.498363757302,26628.65066694378,6889.879497542504,5951.0
459,51.528828,-0.013258,"Bromley High Street, Bromley",34523.01745728051,28422.765738758637,9320.16700201985,6417.0
460,51.531127,-0.048017,"Old Ford Road, Bethnal Green",32104.354199335212,28613.58602885148,6974.340899649273,
461,51.525645,-0.069543,"Granby Street, Shoreditch",30626.882161987596,27964.110943116917,5399.5130484732745,6158.0
462,51.511811,-0.025626,"Canton Street, Poplar",33715.92074447757,26506.50278084216,8437.034936368276,5731.0
463,51.506946,-0.058681,"Reardon Street, Wapping",31435.81700176405,25903.908870424464,6250.043590396947,6177.0
464,51.513074,-0.064094,"Christian Street, Whitechapel",31042.005483756075,26575.655442531308,5765.8625991462395,5989.0
465,51.508622,-0.065006,"Pennington Street, Wapping",30991.798714360833,26078.723626480933,5781.611776904505,6194.0
466,51.522507,-0.041378,"Queen Marys, Mile End",32590.668811386015,27666.97801441091,7314.687654546393,6112.0
467,51.524677,-0.03562,"The Green Bridge, Mile End",32983.77584681916,27919.090009048028,7729.657361548928,6113.0
468,51.50196,-0.016251,"South Quay East, Canary Wharf",34396.37832849444,25428.249116611754,9247.581059074912,5841.0
469,51.528169,-0.018703,"Bow Church Station, Bow",34147.18899086039,28339.20941548384,8936.29252826396,6417.0
470,51.52512,-0.015578,"Devons Road, Bow",34373.22827804854,28005.906060773617,9120.60683191266,6255.0
471,51.526535,-0.028619,"Coborn Street, Mile End",33464.03201228962,28138.84878909969,8232.451200889409,6251.0
472,51.527058,-0.025296,"Bow Road Station, Bow",33693.04755187116,28203.248161263036,8467.885046066596,6309.0
473,51.519265,-0.021345,"Furze Green, Bow",33990.6545823231,27343.736727801297,8695.479091672823,6029.0
474,51.519806,-0.055731,"Sidney Street, Stepney",31602.595060890715,27339.93992636251,6308.692023289483,6307.0
475,51.522561,-0.054883,"Cephas Street, Bethnal Green",31653.299297404796,27647.980948179524,6378.995841830872,6267.0
476,51.502635,-0.022702,"South Quay West, Canary Wharf",33946.46791809841,25491.216822361486,8793.69485778278,5665.0
477,51.520893,-0.051394,"Cleveland Way, Bethnal Green",31900.368319032976,27468.86956411632,6612.412720298213,6166.0
478,51.496454,-0.009506,"St John's Park, Cubitt Town",34881.33080276719,24828.46245453789,9845.160183535312,6017.0
479,51.520398,-0.026768,"Ackroyd Drive, Bow",33610.888445157994,27459.610724034166,8320.256142881755,6043.0
480,51.517475,-0.075855,"Bell Lane, Liverpool Street",30212.778450090264,27043.707323140727,4914.036560312582,5809.0
481,51.528692,-0.059091,"Clarkson Street, Bethnal Green",31343.180806401564,28322.261963369703,6168.998048818619,6415.0
482,51.519362,-0.074431,"Fournier Street, Whitechapel",30306.086735733086,27256.224964158173,5009.975404629025,5910.0
483,51.517842,-0.090075,"Fore Street, Guildhall",29224.770465712907,27058.67498780359,3925.938663209691,5651.0
484,51.509303,-0.025996,"Westferry DLR, Limehouse",33697.76455900943,26226.811881895672,8442.848291660297,5631.0
485,51.511066,-0.053558,"Sutton Street, Shadwell",31779.269230793056,26371.67992750471,6519.78571510301,6031.0
486,51.532091,-0.06142,"Pritchard's Road, Bethnal Green",31171.555924922053,28696.095464452315,6088.839384295562,6423.0
487,51.5142228,-0.055656,"Watney Market, Stepney",31624.305470107705,26718.982116528932,6336.113116372458,6089.0
488,51.516204,-0.155525,"Portman Square, Marylebone",24686.80526233719,26759.909635930177,694.4601960120879,4903.0
489,51.500088,-0.211316,"Russell Gardens, Holland Park",20858.282403283476,24870.934298251726,4963.295107146076,4894.0
490,51.5112,-0.014438,"Chrisp Street Market, Poplar",34494.36066104466,26459.547797563224,9216.86259676241,5916.0
491,51.532513,-0.033085,"Ford Road, Old Ford",33136.251181110565,28795.521532050945,8021.189088826278,6426.0
492,51.528224,-0.037471,"Antill Road, Mile End",32844.74253537858,28310.2238319435,7644.164455383057,6205.0
493,51.518811,-0.011662,"Teviot Street, Poplar",34664.04555644051,27311.45134699685,9367.773338087462,6212.0
494,51.526041,-0.047218,"Bancroft Road, Bethnal Green",32174.895307983767,28049.279552569176,6942.841039560021,6264.0
495,51.534137,-0.037366,"Driffield Road, Old Ford",32834.38002721037,28968.20342091957,7766.496030894234,6422.0
496,51.525941,-0.036017,"Clinton Road, Mile End",32952.45160253666,28058.96225901562,7714.870776117932,6149.0
497,51.51549,-0.013475,"Langdon Park, Poplar",34548.24956630112,26938.594903758174,9250.513809035065,6101.0
498,51.511654,-0.179668,"Lancaster Gate , Bayswater",23023.68215322614,26211.77748876807,2438.105486805857,4759.0
499,51.504714,-0.014293,"Churchill Place, Canary Wharf",34524.0055391081,25738.29894478267,9323.26117149488,5763.0
500,51.503143,-0.008428,"Lancaster Drive, Blackwall",34935.93336036932,25574.601647940144,9755.08319506085,6057.0
501,51.503802,-0.215808,"Hansard Mews, Shepherds Bush",20536.31760256218,25276.488098425063,5095.4609258579885,5006.0
502,51.507326,-0.145827,"Clarges Street, West End",25384.947683620412,25789.289499384206,1301.4369743892353,4686.0
503,51.486892,-0.170983,"Manresa Road, Chelsea",23695.391949118,23472.159097759606,3955.3527802547483,3755.0
504,51.508896,-0.012413,"Newby Place, Poplar",34641.88632552704,26207.060240842082,9384.37444421207,5868.0
505,51.530326,-0.042744,"Twig Folly Bridge, Mile End",32472.600729435653,28534.25568512184,7318.018888684724,6331.0
506,51.50357,-0.020068,"Jubilee Plaza, Canary Wharf",34126.52506741474,25600.1734636389,8952.068210680905,5808.0
507,51.528222,-0.069743,"Wellington Row, Bethnal Green",30605.439557523525,28250.42086659724,5432.350397849635,6234.0
508,51.531864,-0.066035,"Goldsmiths Row, Haggerston",30852.021886119765,28662.367428044876,5771.977108314352,6342.0
509,51.537349,-0.147154,"Gloucester Avenue, Camden Town",25208.242764225346,29126.869960661075,2041.004746371542,5634.0
510,51.53385,-0.06992,"Queensbridge Road, Haggerston",30576.638877375575,28876.179192404757,5572.4419894677385,6342.0
511,51.51793,-0.067937,"Old Montague Street, Whitechapel",30760.991587584285,27108.805335355195,5462.091222552246,5957.0
512,51.508981,-0.00699,"Naval Row, Blackwall",35018.08037319762,26226.755368342303,9757.213693269716,5963.0
513,51.531091,-0.075901,"Hoxton Station, Haggerston",30169.7488589414,28558.324081206316,5087.924555004674,6174.0
514,51.528302,-0.144466,"Albany Street, Regent's Park",25420.252849878118,28125.160650700884,1044.349041963739,5375.0
515,51.506613,-0.142844,"Green Park Station, West End",25594.044106117843,25715.223178003187,1404.0216511172353,4620.0
516,51.514115,-0.033828,"Salmon Lane, Limehouse",33139.70518996043,26747.477073719463,7848.150542628466,5751.0
517,51.509591,-0.204666,"Lansdowne Walk, Notting Hill",21294.07552839452,25939.40743615196,4166.285569906258,4895.0
518,51.526153,-0.102208,"Percival Street, Finsbury",28358.699748324463,27961.31621907736,3181.982931192638,5648.0
519,51.539957,-0.145246,"Arlington Road, Camden Town",25333.254624271518,29420.35266966888,2332.723651843559,5738.0
520,51.517428,-0.107987,"New Fetter Lane, Holborn",27982.782463972922,26980.320099793287,2685.996543658319,5280.0
521,51.509474,-0.002275,"East India DLR, Blackwall",35343.88617608251,26290.523425442196,10076.542787590606,6143.0
522,51.498386,-0.107913,"Westminster Bridge Road, Elephant & Castle",28042.690583232994,24862.1377085766,3533.0015375126977,
523,51.49605,-0.104193,"Gaywood  Street, Elephant & Castle",28307.718231823237,24608.95573055526,3898.437676191117,
524,51.521564,-0.039264,"Harford Street, Mile End",32740.185885404324,27566.004999878845,7456.590099347432,
525,51.503447,-0.016233,"Montgomery Square, Canary Wharf",34393.14382368003,25593.701221939962,9216.13311414946,
526,51.511542,-0.056667,"Watney Street, Shadwell",31562.05255595199,26418.895739254454,6298.7391735284855,
527,51.535678,-0.062546,"Regent's Row , Haggerston ",31082.86194854323,29093.058400994196,6121.640527745841,
528,51.513548,-0.005659,"Aberfeldy Street, Poplar",35096.627566649055,26737.319131102908,9803.956696007395,
529,51.509424,-0.219712,"Westfield Eastern Access Road, Shepherd's Bush",20250.05897601685,25895.31187293175,5187.81516289221,
530,51.502661,-0.021596,"Heron Quays DLR, Canary Wharf",34023.17624161113,25496.18448041161,8868.24612870606,
531,51.51601,-0.0985,"King Edward Street, St Pauls",28645.33174526898,26839.645046080317,3355.585797579315,
532,51.493978,-0.127554,"Page Street, Westminster",26691.471570630732,24336.697869603202,3083.529442260351,
533,51.501391,-0.205991,"Abbotsbury Road, Holland Park",21224.458716560548,25024.936910101358,4566.961938482764,
534,51.511624,-0.205921,"Ladbroke Grove Central, Notting Hill",21201.410710162585,26163.433473923156,4200.518288810436,
535,51.518369,-0.043371,"Rectory Square, Stepney",32464.671068793366,27202.950985638396,7166.65447872259,
536,51.51746,-0.12335,"Bury Place, Holborn",26916.41309838841,26956.41922816451,1622.8062418069842,
537,51.499286,-0.009152,"Preston's Road, Cubitt Town",34897.341200249386,25144.170482706366,9793.227725386581,
538,51.509943,-0.117619,"Somerset House, Strand",27335.689057913973,26130.41126317394,2250.576372123471,
539,51.521905,-0.063386,"Selby Street, Whitechapel",31065.14607312018,27559.35058646291,5785.448172742652,
540,51.509158,-0.224103,"Westfield Ariel Way, White City",19945.959642419475,25858.313940679625,5492.3801405793165,
541,51.51616,-0.18697,"Bishop's Bridge Road West, Bayswater",22504.393825690087,26700.46629567709,2821.272986502119,
542,51.53213,-0.08299,"Pitfield Street Central, Hoxton",29674.853361571644,28660.993452085386,4650.085522909781,
543,51.503083,-0.017676,"Upper Bank Street, Canary Wharf",34294.05907423378,25550.493989340466,9125.553094760226,5743.0
544,51.506256,-0.218337,"Westfield Southern Terrace ,Shepherd's Bush",20354.08997349898,25545.20786760116,5179.902298390948,5194.0
545,51.539099,-0.141728,"Greenland Road, Camden Town",25579.7286645188,29331.09839837774,2260.722114373722,5736.0
546,51.485587,-0.18119,"Limerston Street, Chelsea",22990.096816972888,23309.3206836507,4428.123762541713,3922.0
547,51.53356,-0.09315,"Eagle Wharf Road, Hoxton",28965.775569368678,28801.648695692216,4047.552118852763,5985.0
548,51.497304,-0.022793,"Alpha Grove, Millwall",33956.17245343499,24898.009806868242,8929.905023886107,5779.0
549,51.528869,-0.047548,"Globe Town Market, Bethnal Green",32143.599625199364,28363.26584520642,6962.468296816319,
550,51.527607,-0.057133,"Hollybush Gardens, Bethnal Green",31482.247957730957,28205.16873039279,6283.440362066843,6381.0
551,51.511246,-0.093051,"Queen Street 2, Bank",29037.345466630737,26319.520291923516,3816.5496111788993,5390.0
552,51.48692917,-0.102996299,"Doddington Grove, Kennington",28417.111908324994,23596.471111725987,4681.125844123697,5153.0
553,51.519167,-0.147983,"New Cavendish Street, Marylebone",25201.93537725917,27102.75172496165,98.13821323735792,5148.0
554,51.497622,-0.125978,"Abingdon Green, Great College Street",26790.53148395926,24744.87349048318,2777.50426654208,4537.0
555,51.51244,-0.19096,"Ilchester Gardens, Bayswater",22237.686465633014,26279.77801268085,3166.1186036542376,4684.0
556,51.490645,-0.014582,"Mudchute DLR, Cubitt Town",34546.40095970078,24172.679385117866,9696.078014890434,6076.0
557,51.50964,-0.08497,"Monument Street, Monument",29602.961755731376,26155.51192386329,4403.851987323108,5516.0
558,51.52959,-0.0801,"Hoxton Street, Hoxton",29882.78583292794,28383.691523668967,4763.482173025386,6063.0
559,51.487196,-0.179369,"Drayton Gardens, Chelsea",23112.12171320223,23491.45800282355,4209.089864177487,3876.0
560,51.53256,-0.16862,"Greenberry Street, St.John's Wood",23732.36280254541,28556.610885972186,2147.4011670954283,5590.0
561,51.506093,-0.2242237,"Westfield Library Corner, Shepherd's Bush",19945.85465623153,25517.141663791583,5578.77681818326,5212.0
562,51.5171,-0.18377,"Bishop's Bridge Road East, Bayswater",22723.904175507967,26810.545391919935,2589.927999604038,4867.0
563,51.531066,-0.11934,"Northdown Street, King's Cross",27155.82097693144,28477.162185494468,2319.0744684364818,5737.0
564,51.513875,-0.117774,"Kingsway Southbound, Strand",27313.6778214473,26567.548158942576,2080.8443958551547,5062.0
565,51.493267,-0.21985,"Hammersmith Road, Hammersmith",20284.198284583006,24097.680146238738,5838.573671075451,4839.0
566,51.472817,-0.199783,"Parson's Green , Parson's Green",21733.65923393531,21856.797775214392,6330.518627982156,4334.0
567,51.473471,-0.20782,"Fulham Park Road, Fulham",21173.514217224554,21915.853637202672,6615.815356514281,4531.0
568,51.494499,-0.228188,"Southerton Road, Hammersmith",19701.862561431684,24220.685790235497,6288.727338082897,5187.0
569,51.485743,-0.223616,"Manbre Road, Hammersmith",20042.987639912593,23254.314042171784,6505.480661151597,4819.0
570,51.481747,-0.124642,"South Lambeth Road, Vauxhall",26928.544815895933,22981.246505548683,4418.151271785754,4910.0
571,51.514767,-0.225787,"BBC White City, White City",19813.928888329086,26479.457581802242,5518.653033476,5466.0
572,51.472993,-0.133972,"Union Grove, Wandsworth Road",26305.305537890905,21990.853677123,5195.427068565315,4594.0
573,51.477839,-0.116493,"Caldwell Street, Stockwell",27505.758996382996,22561.03717221241,5036.106322549182,5087.0
574,51.538792,-0.138535,"St Martin's Close, Camden Town",25802.105265042774,29302.57831876274,2271.135670162376,5832.0
575,51.520331,-0.163667,"Seymour Place, Marylebone",24110.164075277164,27204.80494351071,1194.512604973947,5007.0
576,51.504199,-0.210941,"Addison Road, Holland Park",20873.13996190866,25328.9018270713,4762.532841816116,4938.0
577,51.468814,-0.210279,"Putney Bridge Station, Fulham",21015.34325006134,21393.605979314394,7125.586123066282,4587.0
578,51.491093,-0.216493,"Colet Gardens, Hammersmith",20523.212143354045,23861.50721834405,5763.425302434035,4854.0
579,51.46512358,-0.157788279,"Sugden Road, Battersea",24672.73352398687,21073.52205537571,6046.871386305103,4473.0
580,51.48256792,-0.172078187,"Danvers Street, West Chelsea",23631.340272159767,22989.227345126652,4424.913047611552,3859.0
581,51.50646524,-0.208486599,"Princedale Road , Holland Park",21037.36880384988,25585.179878759343,4518.750349943324,4924.0
582,51.46925984,-0.141812513,"Wandsworth Rd, Isley Court, Wandsworth Road",25771.1388594865,21561.707052291516,5546.31178237552,4428.0
583,51.50403821,-0.217400093,"Woodstock Grove, Shepherd's Bush",20425.142992245164,25300.071887546306,5191.354782409353,5068.0
584,51.47817208,-0.144690541,"Bradmead, Nine Elms",25546.051677973446,22548.072037499544,4546.529787645312,4195.0
585,51.4768851,-0.215895601,"Finlay Street, Fulham",20603.220503479664,22281.953823545162,6719.131321818567,4691.0
586,51.48102131,-0.209973497,"Aintree Street, Fulham",21003.36702892749,22752.129858036846,6103.334537680088,4530.0
587,51.47107905,-0.207842908,"Elysium Place, Fulham",21178.436096090634,21649.72183403207,6822.912549028105,4496.0
588,51.47625965,-0.193254007,"Eel Brook Common, Walham Green",22177.804247303255,22250.94868558456,5756.510170043921,4205.0
589,51.4737636,-0.197010096,"Irene Road, Parsons Green",21923.711126918308,21966.842754694953,6133.287034754961,4281.0
590,51.47518024,-0.167160736,"Surrey Lane, Battersea",23993.47759123803,22175.927379514294,5082.4723966345,3893.0
591,51.46086446,-0.187427294,"Wandsworth Town Station, Wandsworth",22624.976530377884,20548.31906615637,7065.122692777197,4564.0
592,51.50748124,-0.205535908,"Lansdowne Road, Ladbroke Grove",21239.44328708353,25703.224424018204,4289.148181779607,4871.0
593,51.46193072,-0.180791784,"Nantes Close, Wandsworth",23083.145820457095,20678.369606992375,6781.709767564765,4417.0
594,51.4729184,-0.132102704,"Courland Grove, Wandsworth Road",26435.383455919713,21985.86651861886,5227.050667872827,4667.0
595,51.47761941,-0.149551631,"Queen's Circus, Battersea Park",25209.92735176001,22478.043991951476,4610.696732579346,4092.0
596,51.48438657,-0.20481514,"Normand Park, Fulham",21352.494985373458,23135.273063675646,5585.4762099546815,4438.0
597,51.4687905,-0.158230901,"Holden Street, Battersea",24631.71677456572,21480.672591430455,5646.767054561773,4462.0
598,51.46881971,-0.184318843,"William Morris Way, Sands End",22819.045029597735,21438.650047528063,6169.578288318325,4305.0
599,51.45995384,-0.190184054,"Morie Street, Wandsworth",22435.906796885538,20442.27901664641,7236.089609607282,4644.0
600,51.47073264,-0.126994068,"Clarence Walk, Stockwell",26796.518251683883,21751.7811886009,5542.265320046482,4760.0
601,51.4795017,-0.141770709,"Battersea Park Road, Nine Elms",25745.12486091518,22701.129071311298,4409.3850619552895,4852.0
602,51.47053858,-0.163041605,"Sheepcote Lane, Battersea",24292.590368846868,21666.73996764593,5513.756887885492,4097.0
603,51.48959104,-0.209378594,"Vereker Road, West Kensington",21021.370078201697,23706.48347816037,5452.656251798508,4579.0
604,51.49434708,-0.215804559,"Brook Green South, Brook Green",20562.197834871928,24224.67450417977,5534.8608221591,4777.0
605,51.48606206,-0.214428378,"Greyhound Road, Hammersmith",20680.245141062915,23305.333295376127,5969.926007325139,4620.0
606,51.46706414,-0.193502076,"South Park, Sands End",22185.81113912849,21227.569395827042,6635.874544717476,4467.0
607,51.45787019,-0.174691623,"Spencer Park, Wandsworth Common",23518.308819643644,20237.20713677004,7078.303962579174,4537.0
608,51.46663393,-0.169821175,"Falcon Road, Clapham Junction",23832.421521480806,21220.57284823162,6047.808488650077,4203.0
609,51.48357068,-0.202038682,"Coomer Place, West Kensington",21547.567592659703,23049.24197426354,5512.1145449887845,
610,51.47286577,-0.148059277,"Silverthorne Road, Battersea",25326.97274453142,21951.849683363485,5136.1082267265265,4223.0
611,51.49824168,-0.117495865,"Archbishop's Park, Waterloo",27377.721873113216,24828.924384752143,3069.8890994538565,4680.0
612,51.46916161,-0.174485792,"Fawcett Close, Battersea",23501.297727397832,21493.672610044392,5875.941749093901,4236.0
613,51.5190427,-0.204764421,"All Saints' Road, Portobello",21261.4465155667,26990.70208601831,4038.6632726950293,5116.0
614,51.48373225,-0.223852256,"Rainville Road, Hammersmith",20032.005914493246,23030.228811997134,6648.694904620142,4816.0
615,51.50173215,-0.100292412,"Great Suffolk Street, The Borough",28562.15936253476,25248.08444480956,3746.124743981151,5067.0
616,51.49886563,-0.137424571,"Buckingham Gate, Westminster",25992.20817666329,24862.931327255646,2330.455540510368,4456.0
617,51.50035306,-0.217515071,"Richmond Way, Shepherd's Bush",20427.14525209565,24889.919992415846,5344.663017755729,4977.0
618,51.46904022,-0.19627483,"Peterborough Road, Sands End",21987.736882181227,21442.648629145086,6544.671281104333,4454.0
619,51.48180515,-0.18027465,"World's End Place, West Chelsea",23064.13035490038,22890.18891533083,4755.522938099047,3913.0
620,51.51687069,-0.213872396,"St. Mark's Road, North Kensington",20635.21539972363,26733.604167980055,4677.16192133054,5145.0
621,51.48089844,-0.183853573,"Thorndike Close, West Chelsea",22818.03951727404,22783.14855421483,4968.45995937888,3990.0
622,51.51148696,-0.218190203,"Evesham Street, Avondale",20350.112022725283,26127.378974449675,5041.177209506736,5227.0
623,51.47084722,-0.17070367,"Simpson Street, Battersea",23759.39261927185,21687.746218988177,5615.306544703818,4072.0
624,51.48267821,-0.117661574,"Ashmole Estate, Oval",27410.74075961612,23097.282541309396,4514.928561804777,5103.0
625,51.48294452,-0.219346128,"Crabtree Lane, Fulham",20347.12301269408,22950.20096216901,6452.975697540938,4728.0
626,51.46841875,-0.199135704,"Broomhouse Lane, Parsons Green",21790.664115942825,21368.620360274537,6709.541694354692,4497.0
627,51.4996806,-0.221791552,"Blythe Road West, Shepherd's Bush",20132.03622329551,24807.888624412153,5647.589425212974,5014.0
628,51.47729232,-0.16478637,"Ethelburga Estate, Battersea Park",24152.53561697583,22415.017060175218,4811.434844654939,3785.0
629,51.46437067,-0.174619404,"Grant Road West, Clapham Junction",23505.30127448459,20960.47493724074,6384.532211410615,4310.0
630,51.49087074,-0.206029743,"West Kensington Station, West Kensington",21250.45443787631,23854.538966416818,5181.191203979384,
631,51.51632095,-0.202608612,"All Saints Church, Portobello",21418.505901556375,26691.591948175366,3900.61758749642,4964.0
632,51.48498496,-0.167919869,"Phene Street, Chelsea",23913.44375684936,23265.330909811804,4065.8939237625827,3684.0
633,51.51323001,-0.211593602,"Clarendon Road, Avondale",20803.279201549987,26332.456644990394,4558.688031580838,5091.0
634,51.474376,-0.155442787,"Austin Road, Battersea",24809.780401807016,22106.90490322889,5004.938013169636,4021.0
635,51.46108367,-0.191722864,"Smugglers Way, Wandsworth",22325.865550270508,20565.324823338975,7168.187968555286,4688.0
636,51.49610093,-0.208158259,"Olympia Way, Olympia",21088.39211964501,24432.753467070317,4977.792841850444,4761.0
637,51.5015946,-0.222293381,"Shepherd's Bush Road North, Shepherd's Bush",20092.020563221857,25019.966700572666,5602.52495552589,5055.0
638,51.49422354,-0.236769936,"Ravenscourt Park Station, Hammersmith",19106.658483744992,24175.65083518575,6842.911864225151,
639,51.47614939,-0.1232585,"Teversham Lane, Stockwell",27040.606362255567,22361.008240341354,5037.53214852322,4892.0
640,51.46718562,-0.152248582,"Ashley Crescent, Battersea",25051.87319135056,21312.611372699874,5780.552416606568,4489.0
641,51.475089,-0.201968,"Parsons Green Station, Parsons Green",21575.650992849885,22105.816407210048,6219.634718080736,4450.0
642,51.4646884,-0.173656546,"Grant Road Central, Clapham Junction",23571.325569689347,20997.48901698235,6330.681848009671,4307.0
643,51.46517078,-0.18038939,"Hibbert Street, Battersea",23102.151474454746,21039.503656563902,6434.963498670839,4267.0
644,51.53546778,-0.11619105,"Carnegie Street, King's Cross",27361.70015753442,28972.459561024007,2794.0315757431476,5885.0
645,51.46348914,-0.182126248,"Usk Road, Battersea",22986.109201228,20849.43247514518,6653.377598976633,4389.0
646,51.47787084,-0.126874471,"Hartington Road, Stockwell",26784.51069856748,22546.076144195948,4778.589129347098,4837.0
647,51.46866929,-0.146544642,"Heath Road, Battersea",25444.017896782927,21487.678104603285,5602.082161133842,4364.0
648,51.46231278,-0.211468596,"Esmond Street, Putney",20950.355290936248,20668.35753466448,7753.739718188194,4842.0
649,51.47453545,-0.170210533,"Orbel Street, Battersea",23783.400013499282,22098.898194995563,5214.097843399802,4089.0
650,51.47768469,-0.170329317,"Westbridge Road, Battersea",23766.392378075907,22449.028233001503,4885.454162702854,3820.0
651,51.47303687,-0.214749808,"Bishop's Avenue, Fulham",20693.255445390518,21855.796671823744,6970.440804480248,4691.0
652,51.48810829,-0.22660621,"Crisp Road, Hammersmith",19828.928801799673,23512.4067065322,6534.909847114196,4936.0
653,51.46506424,-0.163750945,"Dorothy Road, Clapham Junction",24258.58012565461,21056.51365878302,6120.436794084327,4416.0
654,51.45475251,-0.195197203,"Neville Gill Close, Wandsworth",22101.785178541177,19855.060185317037,7907.939343653664,5077.0
655,51.46067005,-0.198735357,"Osiers Road, Wandsworth",21839.68554044183,20507.301262451307,7434.411850795897,4821.0
656,51.48814438,-0.222456468,"Beryl Road, Hammersmith",20117.035552448448,23523.41197473419,6289.481747323054,4824.0
657,51.49760804,-0.21145598,"Maclise Road, Olympia",20855.305122094607,24594.81198339016,5095.222274861309,4853.0
658,51.46095151,-0.20066766,"Northfields, Wandsworth",21704.635363956273,20535.31093066631,7473.634249528366,4898.0
659,51.45922541,-0.180884959,"Spanish Road, Wandsworth",23084.147332846827,20377.257665222307,7066.666793801967,4601.0
660,51.47047503,-0.152130083,"Stanley Grove, Battersea",25050.871453450352,21678.747362365102,5414.81942254132,4327.0
661,51.47946386,-0.195777222,"Erin Close, Walham Green",21993.734676273016,22603.078542139643,5571.161631858399,4257.0
662,51.54211855,-0.028941601,"Cadogan Close, Victoria Park",33394.9330160832,29871.81654146072,8561.27271872944,6722.0
663,51.464786,-0.215618902,"Felsham Road, Putney",20655.24489843355,20936.4550646134,7707.396084224999,4750.0
664,51.46071722,-0.216526155,"Putney Rail Station, Putney",20603.227321352126,20482.287320688803,8104.541628009149,4840.0
665,51.53638435,-0.102757578,"Islington Green, Angel",28291.04413151025,29098.510401805368,3604.901305921391,5880.0
666,51.48728535,-0.217995921,"Charing Cross Hospital, Hammersmith",20429.151566018438,23435.380906434933,6087.331405116294,4690.0
667,51.53639219,-0.112721065,"Charlotte Terrace, Angel",27599.78799837071,29081.501009956322,3044.407755459797,5867.0
668,51.53908372,-0.070329419,"Shoreditch Court, Haggerston",30532.873788857134,29457.651301342674,5745.421447453571,6452.0
669,51.5366541,-0.07023031,"Belford House, Haggerston",30546.879970035254,29187.551258291496,5652.387349946856,6383.0
670,51.47696496,-0.174347066,"Battersea Church Road, Battersea",23489.28995543928,22361.994331224036,5060.518113306924,3925.0
671,51.47287627,-0.176267008,"Vicarage Crescent, Battersea",23367.246437683556,21903.824738951836,5532.258608033579,4027.0
672,51.52868155,-0.065550321,"Durant Street, Bethnal Green",30895.012392820645,28309.22774104346,5727.801334945731,6302.0
673,51.51505991,-0.10534448,"St. Bride Street, Holborn",28173.00949274606,26721.629151738744,2897.311447474186,5278.0
674,51.45682071,-0.202802098,"Mexfield Road, East Putney",21567.586401280845,20072.138158209244,7946.298280850697,5022.0
675,51.45971528,-0.212145939,"Upper Richmond Road, East Putney",20910.341556233252,20378.24916973422,8017.416354144113,5008.0
676,51.50215353,-0.083632928,"Snowsfields, London Bridge",29717.587304858753,25325.117126466503,4757.286833684349,5456.0
677,51.49021762,-0.215087092,"Barons Court Station, West Kensington",20623.22221697976,23766.504991158814,5735.31884424831,4788.0
678,51.46161068,-0.21614583,"Disraeli Road, Putney",20627.235858201064,20582.32411793407,8009.188436689414,4948.0
679,51.46321128,-0.215550761,"Montserrat Road , Putney",20664.248854370642,20761.390542544803,7842.502969322401,4782.0
680,51.47439218,-0.163347594,"Albert Bridge Road, Battersea Park",24260.57689847755,22094.89860736541,5099.81138142384,3859.0
681,51.48335692,-0.216305546,"Everington Street, Fulham",20557.200701580077,23001.22014069688,6259.784030392653,4634.0
682,51.51854104,-0.034903714,"Mile End Stadium, Mile End",33051.81595394542,27237.839113422815,7754.325632214831,5911.0
683,51.54100708,-0.14326094,"Hawley Crescent, Camden Town",25467.996016526857,29540.662991554214,2458.600673014316,5822.0
684,51.47311696,-0.137235175,"Stewart's Road, Nine Elms",26078.251025364283,21998.87040268237,5148.33546177167,4609.0
685,51.51563007,-0.049067243,"Aylward Street, Stepney",32077.456133466854,26887.705232470034,6781.470745847839,6042.0
686,51.51542791,-0.02356501,"Stainsby Road , Poplar",33848.11233394529,26912.72173791207,8550.966082417317,5879.0
687,51.53658514,-0.075885686,"Dunston Road , Haggerston",30154.734673952218,29169.544001276226,5283.1862317552395,6289.0
688,51.53571683,-0.060291813,"Ada Street, Hackney Central",31239.13687579293,29101.522724079812,6272.215318813312,6506.0
689,51.53642464,-0.054162264,"Victoria Park Road, Hackney Central",31662.293389539293,29191.556994842977,6702.067717687929,6594.0
690,51.48724429,-0.205279052,"Star Road, West Kensington",21312.47892601353,23452.39104926595,5395.244720239581,4459.0
691,51.53603947,-0.026262677,"Wendon Street, Old Ford",33599.011217371415,29200.568640913436,8564.731297689297,6596.0
692,51.52458353,-0.058631453,"Finnis Street, Bethnal Green",31387.19650495806,27866.065601959446,6137.787265677769,6306.0
693,51.46822047,-0.190346493,"Stephendale Road, Sands End",22401.890724682118,21361.619425803103,6417.396153365285,
694,51.45799126,-0.184806157,"Alma Road, Wandsworth",22815.048154804113,20233.202999905945,7290.839253129311,4656.0
695,51.47732253,-0.138748723,"Thessaly Road North, Nine Elms",25961.205910685516,22464.04158917736,4671.026680275231,4784.0
696,51.47505096,-0.150908371,"Alfreda Street, Battersea Park",25122.896155681927,22189.936841494025,4901.107282671301,4114.0
697,51.47569809,-0.20587627,"Chesilton Road, Fulham",21302.48010577196,22166.913942723448,6339.370319306712,4471.0
698,51.46199911,-0.206240805,"Putney Bridge Road, East Putney",21314.49033218062,20642.34938207947,7577.646456236807,4894.0
699,51.47893931,-0.208485293,"St. Peter's Terrace, Fulham",21112.40825795407,22523.045853644,6193.930528861768,4531.0
700,51.49208492,-0.229116862,"Bridge Avenue, Hammersmith",19643.85852935078,23950.568526437477,6467.045970015921,5077.0
701,51.47727637,-0.189210466,"Michael Road, Walham Green",22455.906867746075,22370.99365631721,5507.437697894968,4123.0
702,51.50630441,-0.087262995,"Duke Street Hill, London Bridge",29453.4877484639,25780.284124544734,4355.464841083213,5397.0
703,51.50542628,-0.150817316,"Park Lane, Mayfair",25043.85398241812,25569.189201460715,1539.9659506593982,4535.0
704,51.46230566,-0.175407201,"Plough Terrace, Clapham Junction",23456.283991014425,20729.389451595285,6620.10595042181,4347.0
705,51.46489445,-0.17302926,"Grant Road East, Clapham Junction",23614.341420330195,21021.498327985726,6295.941357274957,4295.0
706,51.50659035,-0.216104479,"Queensdale Road, Shepherd's Bush",20508.17263692328,25586.178636519442,5020.614244140798,5107.0
707,51.47993289,-0.19411695,"Fulham Broadway, Walham Green",22107.77672853331,22658.099445747474,5459.532407422992,4209.0
708,51.47514228,-0.187278987,"Imperial Road, Sands End",22595.95971018239,22136.907412025757,5640.766647943029,4253.0
709,51.48176572,-0.185273723,"Hortensia Road, West Brompton",22717.001724770627,22877.18279876068,4939.270223837577,4007.0
710,51.51092871,-0.214594781,"Sirdar Road, Avondale",20601.20528813824,26071.359215514065,4806.457422380701,5137.0
711,51.5129814,-0.219486603,"Freston Road, Avondale",20256.076500196417,26291.439012931805,5105.36945114488,5272.0
712,51.51510818,-0.208565479,"Blenheim Crescent, Ladbroke Grove",21008.354421690266,26546.536831586593,4324.601987987067,5018.0
713,51.46079243,-0.212607684,"Oxford Road, Putney",20875.328140325946,20497.293400282477,7937.5182598269985,4875.0
714,51.46745485,-0.172293499,"Ingrave Street, Battersea",23658.356668871347,21307.60478661282,6008.586603490298,4213.0
715,51.47816972,-0.18243547,"Upcerne Road, West Chelsea",22924.07997505927,22482.03698986434,5182.061855129519,3890.0
716,51.4795738,-0.17903854,"Lots Road, West Chelsea",23156.16543886524,22644.097637619503,4933.426693456329,3801.0
717,51.48796408,-0.161765173,"Ormonde Gate, Chelsea",24332.59780881829,23607.459228951804,3612.084806633783,3835.0
718,51.53727795,-0.079201849,"Hertford Road, De Beauvoir Town",29922.64835966422,29240.568708398816,5100.268375784569,6243.0
719,51.53932857,-0.074284675,"Haggerston Road, Haggerston ",30257.77166869669,29477.65813635956,5504.638037917063,6421.0
720,51.4710956,-0.157850096,"Culvert Road, Battersea",24651.723236712452,21737.767736287293,5389.119264130706,4040.0
721,51.51612862,-0.120909408,"Newton Street, Covent Garden",27089.607563299447,26812.657741703413,1811.6944571489828,5101.0
722,51.45816465,-0.20600248,"Manfred Road, East Putney",21341.502011332355,20216.190907605313,7929.782425081884,5034.0
723,51.49263658,-0.234094148,"Hammersmith Town Hall, Hammersmith",19296.729625650492,24003.587655605545,6748.288868863012,5157.0
724,51.5129006,-0.214762686,"Grenfell Road, Avondale",20584.198169092502,26290.43959298139,4781.705569827445,5156.0
725,51.48512191,-0.174971902,"The Vale, Chelsea",23423.262018530077,23268.33080537725,4255.248098306939,3814.0
726,51.47515398,-0.159169801,"Prince of Wales Drive, Battersea Park",24548.6833219337,22186.934069326177,4958.04100346668,3925.0
727,51.48795853,-0.187404506,"Harcourt Terrace, West Brompton",22551.93792043056,23562.435686985234,4469.316548213396,4078.0
728,51.51787005,-0.201005397,"Westbourne Park Road, Portobello",21525.544867398537,26866.657511634432,3779.874889316462,4997.0
729,51.52456169,-0.165668686,"Broadley Terrace, Marylebone",23959.443985016376,27671.965124635404,1461.3023451299705,5148.0
730,51.52526975,-0.163795009,"Rossmore Road, Marylebone",24087.491177102565,27753.995265126607,1382.5038839257613,
731,51.48321729,-0.211860644,"Humbolt Road, Fulham",20866.315281232004,22993.218936987367,6034.4367255621355,4553.0
732,51.50070305,-0.129698963,"Storey's Gate, Westminster",26523.40424517315,25081.01430851189,2350.920494438856,4603.0
733,51.52059714,-0.032566533,"Mile End Park Leisure Centre, Mile End",33207.87289208066,27470.926092075795,7918.202808828178,6027.0
734,51.46239255,-0.16829214,"St. John's Road, Clapham Junction",23950.46706265658,20751.399437782093,6478.37821155737,4362.0
735,51.46760141,-0.20682737,"Ranelagh Gardens, Fulham",21258.467219453873,21264.57898802284,7087.755284567714,4602.0
736,51.45752945,-0.192165613,"Ram Street, Wandsworth",22304.85926705756,20169.176936274423,7538.766058989345,4762.0
737,51.45705988,-0.200806304,"Santos Road, Wandsworth",21705.637386704155,20102.150479041185,7855.715339980494,4992.0
738,51.46134382,-0.159322467,"Clapham Common Northside, Clapham Common",24576.699573434176,20650.3642058282,6477.905497836052,4525.0
739,51.473611,-0.191803,"Sandilands Road, Walham Green",22285.881284900897,21958.788261921465,5948.623539758217,4272.0
740,51.491026,-0.209121,"Gwendwr Road, West Kensington",21035.354004370427,23866.553953998635,5343.699083892893,4601.0
741,51.509224,-0.216016,"Rifle Place, Avondale",20507.17272663783,25879.311081228167,4941.829629140864,5146.0
742,51.47250956,-0.122831913,"Binfield Road, Stockwell",27080.622753751217,21956.85873579947,5431.554616450453,4872.0
743,51.511891,-0.107349,"Tallis Street, Temple",28042.995983101282,26365.50469995805,2837.5462856409795,5187.0
744,51.470131,-0.20464,"Hurlingham Park, Parsons Green",21403.550210528905,21549.70771333328,6770.925561785919,4492.0
745,51.496664,-0.223868,"Little Brook Green, Brook Green",19996.00494027602,24468.803599253442,5914.447862912361,4954.0
746,51.460333,-0.167029,"Abyssinia Close, Clapham Junction",24043.977452037274,20524.482470837218,6682.300334022479,4406.0
747,51.4619230679,-0.165297856693,"Limburg Road, Clapham Common",24159.847573904422,20704.38134899785,6484.335401861358,4439.0
