,lat,lon,name,projected_lon,projected_lat,centroid_distance,travel_time
0,51.52916347,-0.109970527,"River Street , Clerkenwell",27811.388446635683,28282.270369074802,2968.3132497467805,0.37155240346729707
1,51.49960695,-0.197574246,"Phillimore Gardens, Kensington",21813.727944294733,24840.82796555708,3969.7514444084513,0.5464933018124508
2,51.52128377,-0.084605692,"Christopher Street, Liverpool Street",29594.34266148755,27451.475186475815,4503.092526721475,0.38455476753349094
3,51.53005939,-0.120973687,"St. Chad's Street, King's Cross",27045.34411292318,28362.269050930423,2336.6263174785454,0.40386130811662724
4,51.49313,-0.156876,"Sedding Street, Sloane Square",24657.683763620982,24190.679445643647,2899.4346642257365,0.25610717100078806
5,51.51811784,-0.144228881,"Broadcasting House, Marylebone",25465.443586844296,26992.639642519905,362.0669893210155,0.26280535855003945
6,51.53430039,-0.16807429999999998,"Charlbert Street, St. John's Wood",23765.376605300116,28751.169731627422,2163.8606926480893,0.5819542947202522
7,51.52834133,-0.17013448399999997,"Lodge Road, St. John's Wood",23639.02229163931,28084.672708070168,1794.6379902570404,0.574468085106383
8,51.507385299999996,-0.09644075099999999,"New Globe Walk, Bankside",28813.219009397813,25883.913070465584,3885.1076962190787,0.17888100866824272
9,51.50597426,-0.09275415699999999,"Park Street, Bankside",29073.236006976804,25733.6070493531,4178.839120062041,0.2096138691883373
10,51.52395143,-0.122502346,"Brunswick Square, Bloomsbury",26956.713904699835,27680.066320300073,1950.8707048448612,0.2919621749408984
11,51.52168078,-0.130431727,"Malet Street, Bloomsbury",26412.90331178326,27413.376565742452,1352.542942310937,0.268715524034673
12,51.51991453,-0.136039674,"Scala Street, Fitzrovia",26028.72160852814,27206.9599765944,932.4635904387833,0.2616233254531127
13,51.52994371,-0.123616824,"Belgrove Street , King's Cross",26862.2763457494,28344.692840710777,2176.839623803434,0.4101654846335698
14,51.51772703,-0.127854211,"Great Russell Street, Bloomsbury",26603.03541543476,26978.11631260722,1496.24783880117,0.20015760441292357
15,51.52635795,-0.125979294,"Cartwright Gardens , Bloomsbury",26708.570908625552,27941.593157539988,1829.150854979278,0.32387706855791965
16,51.521661200000004,-0.109006325,"Hatton Wall, Holborn",27899.86441996679,27449.411714097107,2818.8655738999964,0.2624113475177305
17,51.51477076,-0.12221963,"Drury Lane, Covent Garden",27002.544766027015,26659.268355746608,1934.6566527733585,0.15839243498817968
18,51.52505093,-0.13116108699999998,"Taviton Street, Bloomsbury",26352.709512971545,27786.995590519422,1443.4391111738125,0.32348305752561074
19,51.52773634,-0.135273468,"Drummond Street , Euston",26059.719835237338,28078.452451767545,1397.202320424144,0.35933806146572106
20,51.53007835,-0.13884627,"Hampstead Road (Cartmel), Euston",25805.17446620221,28332.676568866445,1455.3137178248107,0.4046493301812451
21,51.5222641,-0.114079481,"Northington Street , Holborn",27546.063038854147,27507.39353710311,2478.972079077098,0.28250591016548465
22,51.51943538,-0.119123345,"Red Lion Square, Holborn",27204.117475885403,27183.702422526345,2099.323347357711,0.227344365642238
23,51.51908011,-0.124678402,"British Museum, Bloomsbury",26819.595121777704,27134.284073330433,1712.6853975590736,0.22182821118991333
24,51.52728093,-0.11829517,"Ampton Street , Clerkenwell",27239.14714776416,28057.956801558466,2354.7551297311666,0.3479117415287628
25,51.51382102,-0.107927706,"Bouverie Street, Temple",27997.27389846329,26579.169844115357,2927.4186150793635,0.16430260047281323
26,51.52351808,-0.143613641,"Bolsover Street, Fitzrovia",25492.90148773488,27594.473070482403,662.4218557457668,0.3364854215918046
27,51.513735,-0.193487,"Hereford Road, Bayswater",22058.72103905573,26419.507656072936,3115.4961471967,0.5807722616233255
28,51.52915444,-0.093421615,"Windsor Terrace, Hoxton",28959.704078040668,28311.062933756184,4050.676265423842,0.4314420803782506
29,51.52953709,-0.08335332299999999,"Fanshaw Street, Hoxton",29657.202440424328,28371.886189572484,4735.299584086749,0.4814814814814815
30,51.52469624,-0.084439283,"Leonard Circus , Shoreditch",29595.95184042104,27831.395315154892,4553.9017248075825,0.41489361702127664
31,51.51681603,-0.067827542,"Altab Ali Park, Whitechapel",30771.861011609813,26985.083536635415,5663.535732478677,0.4720252167060678
32,51.5341235,-0.129386874,"Pancras Road, King's Cross",26450.02173776251,28799.420572284056,2200.6035561673007,0.43695823483057533
33,51.50173726,-0.184980612,"De Vere Gardens, Kensington",22682.26893345738,25099.425029220496,3116.30734219918,0.44838455476753347
34,51.49159394,-0.19236925600000002,"Penywern Road, Earl's Court",22197.14345941684,23958.33115584546,4250.37340042108,0.6623325453112687
35,51.4973875,-0.19724558600000003,"Abingdon Villas, Kensington",21842.62956840392,24594.486278518132,4089.1045537494992,0.574468085106383
36,51.5263778,-0.07813092099999999,"Shoreditch High Street, Shoreditch",30028.801506385178,28029.940272963635,5015.7488847592695,0.48463356973995275
37,51.52127071,-0.0755789,"Commercial Street, Shoreditch",30220.8348358988,27466.461611275707,5128.627513506045,0.4633569739952719
38,51.52001715,-0.08391116800000001,"Sun Street, Liverpool Street",29646.23242248516,27311.83311223137,4544.751398211974,0.39164696611505123
39,51.53099181,-0.093903825,"Wenlock Road , Hoxton",28920.918919616845,28514.588394037244,4082.1004083766024,0.45271867612293143
40,51.52026,-0.157183945,"Crawford Street, Marylebone",24560.29720551378,27208.219075296627,569.5077810272346,0.3892828999211978
41,51.522511,-0.162298,"Boston Place, Marylebone",24199.08350158675,27449.70535049963,991.6864355670074,0.45902285263987397
42,51.507131,-0.06691,"Nesham Street, Wapping",30864.00750242491,25909.365776063496,5868.132940196934,0.4893617021276596
43,51.52334476,-0.18384640800000002,"Warwick Avenue Station, Maida Vale",22701.356834325547,27505.116137122357,2449.1503295069765,0.5973207249802994
44,51.51248445,-0.09914140800000001,"Godliman Street, St. Paul's",28611.0019375727,26446.290782694676,3554.720124832346,0.19897557131599686
45,51.50706909,-0.145904427,"Curzon Street, Mayfair",25380.296726437096,25760.573383744602,1322.4179799977894,0.2348305752561072
46,51.52867339,-0.08745937599999999,"East Road, Hoxton",29374.808127215947,28268.34778231298,4435.299513702624,0.4609929078014185
47,51.52671796,-0.104298194,"Finsbury Library , Finsbury",28212.028008112247,28020.40448773993,3250.0268692142026,0.3605200945626478
48,51.52295439,-0.09493485900000001,"Roscoe Street, St. Luke's",28872.66445854804,27618.6060964622,3805.900867282761,0.3376674546887313
49,51.50999229999999,-0.14349526599999998,"Grafton Street, Mayfair",25539.294396581085,26090.005789564602,1056.5112438271954,0.19542947202521674
50,51.52174785,-0.094475072,"Golden Lane, Barbican",28908.068134707195,27485.216218872607,3823.614964087138,0.32860520094562645
51,51.51707521,-0.08668554199999999,"Finsbury Circus, Liverpool Street",29462.245462236577,26979.52030322721,4354.141945171798,0.33333333333333337
52,51.52058381,-0.15470141099999998,"Paddington Street, Marylebone",24731.680613666234,27248.58383637332,423.94833065404526,0.3778565799842396
53,51.52334672,-0.120202614,"Guilford Street , Bloomsbury",27118.03391083717,27616.893522870116,2086.417739566702,0.2848699763593381
54,51.52452699,-0.079248081,"New Inn Yard, Shoreditch",29956.685607036983,27822.012373642036,4908.261577050646,0.4523246650906226
55,51.53176825,-0.114329032,"Rodney Street, Angel",27501.49249751326,28564.234249243193,2829.054578081167,0.4314420803782506
56,51.52644828,-0.172190727,"Lisson Grove, St. John's Wood",23501.60217455137,27870.512365601695,1802.3055959042854,0.5394011032308905
57,51.49738251,-0.089446947,"Great Dover Street, Borough",29327.784052356583,24783.81563846834,4791.412680844236,0.20764381402679277
58,51.4907579,-0.106323685,"Cotton Garden Estate, Kennington",28174.999511466303,24016.41063487748,4316.681872808893,0.21355397951142632
59,51.53089041,-0.089782579,"Murray Grove , Hoxton",29207.165053877863,28510.76712568206,4349.341724439552,0.4862096138691884
60,51.50946212,-0.12474927400000001,"William IV Street, Strand",26842.09757743668,26064.2074423545,1996.440808467264,0.09692671394799054
61,51.52522753,-0.13518856,"Gower Place , Euston",26072.725687008977,27799.509881702863,1218.1194460115355,0.34200157604412923
62,51.51795029,-0.108657431,"Holborn Circus, Holborn",27934.748928377085,27037.218970984657,2826.0491508793516,0.22182821118991333
63,51.51882555,-0.10802847199999999,"Hatton Garden, Holborn",27975.883856366505,27135.71547686038,2868.2705332870714,0.23089046493301815
64,51.52059681,-0.116688468,"Theobalds Road , Holborn",27369.77837920538,27317.25234956472,2276.2037745685334,0.24034672970843185
65,51.53136059,-0.117069978,"Calshot Street , King's Cross",27312.482618213166,28513.985476311267,2643.029330987934,0.44208037825059104
66,51.5154186,-0.098850915,"Newgate Street , St. Paul's",28622.685012119036,26773.222215394053,3525.195070997392,0.326635145784082
67,51.52352001,-0.108340165,"Farringdon Lane, Clerkenwell",27940.748769831407,27657.389442699117,2895.3912740177266,0.3014184397163121
68,51.52572618,-0.08848618800000001,"Old Street Station, St. Luke's",29312.126168427203,27938.62493809787,4295.2832236105605,0.417651694247439
69,51.48591714,-0.12446994800000001,"Vauxhall Cross, Vauxhall",26928.60964139327,23445.45653509241,4042.192600584475,0.1674546887312845
70,51.53219984,-0.10548069800000001,"Torrens Street, Angel",28114.17940086496,28628.108952220617,3392.3209181941443,0.4247438928289992
71,51.52559505,-0.14408389300000002,"Longford Street, Regent's Park",25454.40633783299,27824.6980049579,843.9190085852825,0.3632781717888101
72,51.52341837,-0.124121774,"Russell Square Station, Bloomsbury",26845.85299100174,27617.88337225074,1826.077806135967,0.28092986603624903
73,51.52486887,-0.099489485,"Sadlers Sports Centre, Finsbury",28551.054456836515,27823.360884619207,3527.051994331631,0.3416075650118203
74,51.50069361,-0.102091246,"Webber Street , Southwark",28440.263674478454,25129.312465545692,3847.921828681408,0.11032308904649332
75,51.52025302,-0.141327271,"Great Titchfield Street, Fitzrovia",25660.795151854065,27235.27963966105,580.7902613597026,0.2931442080378251
76,51.514274,-0.111257,"Chancery Lane, Holborn",27764.883450370253,26623.59104396784,2690.905514070835,0.16548463356973997
77,51.50963938,-0.13151094900000002,"Panton Street, West End",26372.2133442208,26071.919678154314,1600.7516640625377,0.09810874704491727
78,51.51593725,-0.11177834800000001,"Breams Buildings, Holborn",27723.921653398313,26807.68456629562,2626.8176762404987,0.185973207249803
79,51.50064702,-0.078600401,"Tanner Street, Bermondsey",30071.388216329884,25166.688760450023,5309.683906324789,0.33609141055949565
80,51.48947903,-0.11515656199999999,"Sancroft Street, Vauxhall",27565.25411380928,23858.31071630746,4031.37842331639,0.14893617021276598
81,51.51646835,-0.079684557,"Devonshire Square, Liverpool Street",29949.926486471755,26924.740532652737,4842.919001419862,0.3534278959810875
82,51.51858757,-0.132053392,"Bayley Street , Bloomsbury",26309.146160072356,27066.39807838868,1200.4475302158955,0.21788810086682428
83,51.526250299999994,-0.12350961099999999,"Tavistock Place, Bloomsbury",26880.254530927225,27934.010507957748,1977.675871565578,0.322301024428684
84,51.53301907,-0.139174593,"Harrington Square, Camden Town",25774.07168711716,28659.2380688508,1736.9021915161475,0.4338061465721041
85,51.49368637,-0.111014912,"Walnut Tree Walk, Vauxhall",27840.804411571735,24333.767440310883,3855.928055620956,0.07919621749408984
86,51.49889832,-0.10044052099999999,"Borough Road, Elephant & Castle",28560.058774641482,24932.57057324241,4051.593576330159,0.11071710007880221
87,51.53440868,-0.109025404,"Cloudesley Road, Angel",27861.884922802274,28867.46738228647,3296.2775450898625,0.458628841607565
88,51.49506109,-0.08581448900000001,"Bricklayers Arms, Borough",29586.760980710766,24532.1625288309,5139.679282201965,0.2533490937746257
89,51.5208417,-0.097340162,"Aldersgate Street, Barbican",28711.85571409657,27379.23729185798,3617.6773899505997,0.31678486997635935
90,51.53095071,-0.078505384,"Falkirk Street, Hoxton",29989.455032214813,28537.96783684948,5101.077130019141,0.537431048069346
91,51.49792478,-0.18383470600000001,"Gloucester Road (North), Kensington",22772.353990946707,24677.27830518331,3333.3819200215935,0.47044917257683216
92,51.52554222,-0.138231303,"Hampstead Road, Euston",25860.686970928655,27829.139927137498,1079.3450719138093,0.4011032308904649
93,51.51457763,-0.158264483,"Old Quebec Street, Marylebone",24501.217724067392,26574.19419116134,774.65777542703,0.3550039401103231
94,51.49043573,-0.12280686099999999,"Albert Embankment, Vauxhall",27031.225718393092,23951.084524911275,3650.893179882864,0.09810874704491727
95,51.51155322,-0.09294010000000001,"Queen Street, Bank",29044.15284374752,26353.897362781485,3997.329288107115,0.24152876280535857
96,51.51340693,-0.076793375,"Jewry Street, Aldgate",30159.545522796747,26589.446435171732,5072.184426647752,0.36288416075650126
97,51.50472376,-0.192538767,"Vicarage Gate, Kensington",22149.3001117315,25418.67240390522,3381.615590243575,0.5200945626477542
98,51.51159481,-0.077121322,"Crosswall, Tower",30142.07983986527,26387.260706660425,5077.399786108657,0.3605200945626478
99,51.51552971,-0.190240716,"Westbourne Grove, Bayswater",22279.113678703347,26624.729339115875,2862.1388308693013,0.5882584712371947
100,51.51410514,-0.147301667,"Woodstock Street, Mayfair",25263.48044466092,26540.84188495911,536.7546987984966,0.27344365642237983
101,51.52600832,-0.09631762699999999,"Finsbury Leisure Centre, St. Luke's",28767.864314984152,27955.841119323013,3768.413117886176,0.36643026004728135
102,51.49812559,-0.132102166,"Abbey Orchard Street, Westminster",26363.86513448393,24790.024432691658,2589.3177300207153,0.03230890464933017
103,51.51563144,-0.132328837,"Soho Square , Soho",26298.423456742647,26737.055752524786,1231.373745307489,0.20527974783293934
104,51.53304322,-0.17252867800000002,"Wellington Road, St. John's Wood",23459.823876755283,28603.58493841588,2262.2266197407453,0.6398739164696612
105,51.5100172,-0.157275636,"Park Lane , Hyde Park",24582.629842448994,26068.59655627134,1117.7783883039035,0.3014184397163121
106,51.51580998,-0.105270275,"Stonecutter Street, Holborn",28175.999262151017,26805.20365072324,3077.384379473615,0.21749408983451538
107,51.49646288,-0.183289032,"Gloucester Road (Central), South Kensington",22814.280114822992,24515.58923690443,3422.3188377714223,0.49566587864460204
108,51.52451738,-0.15896364699999999,"Park Road (Baker Street), Regent's Park",24424.86521624039,27678.72330902025,925.7265577021582,0.47360126083530346
109,51.51423368,-0.07353765400000001,"Braham Street, Aldgate",30383.107997022773,26687.36218655124,5287.1375913274105,0.42947202521670613
110,51.51449962,-0.141423695,"Little Argyll Street, West End",25670.36109235484,26595.072625791858,725.7839968247637,0.22301024428684005
111,51.49288067,-0.114934001,"Lollard Street, Vauxhall",27570.96473909814,24237.121413501533,3741.9060011325832,0.10401891252955084
112,51.49582705,-0.13547809,"Rochester Row, Westminster",26135.971606135558,24528.347145162435,2727.3064834216166,0.07131599684791175
113,51.52589324,-0.090847761,"Bath Street, St. Luke's",29147.765183571028,27952.930230393336,4137.659113968627,0.39361702127659576
114,51.51573534,-0.093080779,"The Guildhall, Guildhall",29022.263000508334,26818.879662801482,3920.6138087125196,0.2793538219070134
115,51.51891348,-0.156166631,"Baker Street, Marylebone",24634.675376544867,27060.203892951336,474.10982248357067,0.3727344365642238
116,51.52111369,-0.078869751,"Norton Folgate, Liverpool Street",29992.91043959814,27442.991913207836,4899.557360112089,0.4444444444444445
117,51.52836014,-0.104724625,"St. John Street, Finsbury",28177.70457522478,28202.3215469734,3276.4663863483793,0.3766745468873129
118,51.49654462,-0.150905245,"Eaton Square, Belgravia",25062.713473174386,24580.995933965227,2474.2446882486383,0.19976359338061464
119,51.50069491,-0.09452431900000001,"Borough High Street, The Borough",28965.638349122688,25143.109149435797,4304.667388881396,0.17454688731284476
120,51.51700801,-0.09388536,"Wood Street, Guildhall",28962.73039272451,26959.00183941939,3855.166598036732,0.3014184397163121
121,51.49536226,-0.18529651600000002,"Emperor's Gate, South Kensington",22677.920044061946,24389.6923533183,3607.1900741750524,0.5063041765169425
122,51.5118973,-0.137043852,"Golden Square, Soho",25981.73762471741,26313.308881008736,1145.39367091728,0.16075650118203313
123,51.50950627,-0.07545948200000001,"Tower Gardens , Tower",30263.54573882211,26157.956008252717,5232.229291309981,0.3873128447596533
124,51.53300545,-0.136792671,"Eversholt Street , Camden Town",25939.372956013074,28661.929520329722,1809.0751731520838,0.40543735224586286
125,51.52364804,-0.074754872,"Bethnal Green Road, Shoreditch",30271.062434497755,27732.430160401767,5206.590906922891,0.5007880220646178
126,51.50136494,-0.19146238100000001,"Derry Street, Kensington",22233.262655228653,25046.865138279943,3507.179072806594,0.49684791174152876
127,51.52326004,-0.104708922,"Clerkenwell Green, Clerkenwell",28193.49258127244,27634.991072155623,3138.824029143624,0.3211189913317573
128,51.51196176,-0.097441687,"Queen Victoria Street, St. Paul's",28730.49646318046,26391.210837564868,3682.0349461657192,0.19936958234830576
129,51.49087475,-0.153319609,"Bourne Street, Belgravia",24910.979645088883,23946.01977735854,3115.0770995294606,0.23246650906225377
130,51.51227622,-0.15743697199999998,"Green Street, Mayfair",24565.1024012056,26319.619504103932,914.3664320866487,0.3376674546887313
131,51.49488108,-0.117974901,"Lambeth Road, Vauxhall",27354.073526716296,24454.2212852418,3435.772189725146,0.06973995271867613
132,51.52096262,-0.085634242,"Finsbury Square , Moorgate",29523.896666549932,27413.880839271093,4429.718983225682,0.3837667454688732
133,51.51530805,-0.147203711,"Chapel Place, Marylebone",25266.891190433424,26674.831819007377,411.5729609857045,0.2797478329393223
134,51.49372451,-0.198286569,"West Cromwell Road, Earl's Court",21780.378005383754,24185.215507735527,4394.61893992108,0.6260835303388496
135,51.4968865,-0.16120382800000002,"Pont Street, Knightsbridge",24346.64795332114,24601.01177493282,2569.424654438161,0.28211189913317575
136,51.48894022,-0.11143579599999999,"Kennington Cross, Kennington",27825.20067738768,23805.031864270073,4235.581654263915,0.1335697399527187
137,51.50074359,-0.202759212,"Ilchester Place, Kensington",21450.612840645015,24958.4207362679,4216.261131843981,0.6048069345941687
138,51.48836528,-0.129361842,"Vauxhall Bridge , Pimlico",26581.890039776525,23709.10417044352,3655.6655380256207,0.13002364066193856
139,51.51494305,-0.11614642,"Portugal Street, Holborn",27423.590758219478,26689.27026531039,2343.520350477341,0.1773049645390071
140,51.49211134,-0.13836484699999999,"Tachbrook Street, Victoria",25946.03281056162,24109.891997078346,3061.631917416264,0.13829787234042554
141,51.48478899,-0.110683213,"Kennington Road Post Office, Oval",27889.386239817657,23344.581047967862,4636.564241803682,0.18045705279747834
142,51.49705603,-0.168917077,"Holy Trinity Brompton, Knightsbridge",23810.5891915798,24606.443384268176,2771.2349610327506,0.3526398739164697
143,51.51213691,-0.201554966,"Chepstow Villas, Notting Hill",21503.07742518351,26227.93206772764,3699.275366720055,0.6284475965327029
144,51.49217002,-0.101536865,"Hampton Street, Walworth",28503.350675495545,24182.111907892948,4446.986618022901,0.14026792750197006
145,51.51183419,-0.174292825,"Bayswater Road, Hyde Park",23396.299322318955,26241.118356176157,1895.9431878329883,0.4338061465721041
146,51.50379168,-0.11282408,"Waterloo Station 3, Waterloo",27686.185231592608,25454.68451113344,3033.736580513015,0.02955082742316785
147,51.49586666,-0.191933711,"Lexham Gardens, Kensington",22215.6484734307,24434.39825823545,3903.412868881764,0.5614657210401892
148,51.49443626,-0.092921165,"New Kent Road, Borough",29095.08904053198,24449.77140727066,4762.047916846801,0.19897557131599686
149,51.50039792,-0.193068385,"Wright's Lane, Kensington",22124.412703625756,24936.53429348892,3659.699107283,0.5177304964539007
150,51.49085368,-0.196170309,"Trebovir Road, Earl's Court",21935.206609723202,23869.468661133636,4496.423026255721,0.6958234830575256
151,51.51461995,-0.137841333,"Great Marlborough Street, Soho",25918.673088587268,26614.780720042734,921.735196342947,0.1950354609929078
152,51.49234577,-0.14133448699999998,"Guildhouse Street, Victoria",25739.145969736448,24130.730043574324,2991.262259568324,0.13869188337273447
153,51.51760685,-0.12132840800000001,"Southampton Place, Holborn",27056.30344649691,26976.35622539246,1949.128544794505,0.19542947202521674
154,51.4931848,-0.167894973,"Sloane Avenue, Knightsbridge",23892.341113066912,24177.564516152517,3123.8143274986232,0.3557919621749409
155,51.515607,-0.183118788,"Cleveland Gardens, Bayswater",22773.22680073067,26645.577881856385,2371.109985430704,0.524822695035461
156,51.517932,-0.18371695899999999,"Orsett Terrace, Bayswater",22725.288036223137,26903.193114007852,2388.2840971298397,0.5421591804570528
157,51.50185512,-0.159237081,"Seville Street, Knightsbridge",24469.311262372517,25157.178539054265,2002.4737895500448,0.2616233254531127
158,51.49395092,-0.147624377,"Eccleston Place, Victoria",25297.831758301036,24298.22128512981,2763.0678157991956,0.19306540583136328
159,51.50040123,-0.195455928,"Argyll Road, Kensington",21958.631310028723,24932.812404958095,3798.178453510824,0.5346729708431837
160,51.51474612,-0.16516428800000002,"Porchester Place, Paddington",24021.829950680054,26580.906043065857,1185.7453877230291,0.38849487785658
161,51.52784273,-0.108068155,"Hardwick Street, Clerkenwell",27947.18936065052,28138.757111110346,3038.362842781817,0.36288416075650126
162,51.4916156,-0.186753859,"Collingham Gardens, Earl's Court",22587.04796988808,23970.386222821107,3984.0541832876693,0.5094562647754137
163,51.49121192,-0.17371591100000003,"Sumner Place, South Kensington",23493.594137462074,23947.98937147777,3501.58411503831,0.4081954294720252
164,51.50486,-0.113001,"Waterloo Roundabout, Waterloo ",27670.83785207216,25573.212370326306,2959.6298753052547,0.04649330181245075
165,51.512529,-0.11516300000000002,"Strand, Strand",27498.767001449465,26422.478182875755,2472.247134390015,0.12135539795114265
166,51.52174384,-0.0811189,"Appold Street, Liverpool Street",29834.981683036167,27508.996164307027,4748.000217219404,0.4180457052797479
167,51.51791921,-0.188098863,"Gloucester Terrace, Bayswater",22421.19529349316,26894.229938579752,2692.3523865634743,0.587470449172577
168,51.49616092,-0.140947636,"Ashley Place, Victoria",25755.23035083896,24555.827160224348,2581.251108024679,0.11071710007880221
169,51.48985626,-0.141923621,"Warwick Square, Pimlico",25705.264519832665,23852.746842689492,3257.153175823597,0.17572892040977148
170,51.5129118,-0.153645496,"North Audley Street, Mayfair",24826.498995956645,26396.958566978137,715.8488778707215,0.322301024428684
171,51.49941247,-0.152317537,"Belgrave Square, Belgravia",24956.59297530714,24897.552762219246,2162.619128045097,0.2285263987391647
172,51.52202903,-0.165842551,"Bell Street , Marylebone",23954.441877073215,27389.915726035513,1201.9700857814012,0.47754137115839246
173,51.52071513,-0.14521173,"Portland Place, Marylebone",25389.90450479032,27279.845720994024,360.1185649649311,0.29747832939322305
174,51.48805753,-0.140741432,"Alderney Street, Pimlico",25792.447561235196,23654.732783603977,3468.1372945168737,0.20724980299448387
175,51.51733558,-0.175810943,"South Wharf Road, Paddington",23275.662306600483,26850.494779010274,1844.4437515594548,0.5007880220646178
176,51.49247977,-0.17843300399999998,"Queen's Gate (South), South Kensington",23162.500888660055,24080.8685520617,3554.1868540356595,0.45153664302600477
177,51.516517900000004,-0.164393768,"Nutford Place, Marylebone",24070.367167811186,26779.34962853309,1074.3034825663926,0.421591804570528
178,51.53166681,-0.109914711,"Claremont Square, Angel",27808.066171831946,28560.853931745136,3091.0265176902026,0.4101654846335698
179,51.48997562,-0.132845681,"Rampayne Street, Pimlico",26335.367990540297,23882.06786235413,3401.6006952497287,0.14223798266351462
180,51.50311799,-0.153520935,"Hyde Park Corner, Hyde Park",24862.636565506124,25307.66418383477,1764.39800045218,0.22379826635145786
181,51.51251523,-0.133201961,"Wardour Street, Soho",26246.66557624408,26388.84696556817,1318.4654869755857,0.1513002364066194
182,51.50581776,-0.10018633699999999,"Bankside Mix, Bankside",28557.72496362566,25702.77597546109,3704.510625732805,0.13829787234042554
183,51.50462759,-0.091773776,"Hop Exchange, The Borough",29145.203255041706,25585.57230269871,4295.530717960048,0.19858156028368795
184,51.50724437,-0.106237501,"Milroy Walk, South Bank",28133.527145269793,25850.589483473013,3255.672234860211,0.08668242710795904
185,51.50368837,-0.098497684,"Union Street, The Borough",28681.111657352245,25468.93858407045,3908.545835430375,0.14223798266351462
186,51.50556905,-0.11160669599999999,"Stamford Street, South Bank",27765.60151377655,25654.587155840214,3003.2425907982356,0.04649330181245075
187,51.51048489,-0.082989638,"Great Tower Street, Monument",29737.970508211176,26253.100496596686,4698.125387618931,0.3045705279747833
188,51.51492456,-0.066078037,"LMU Commercial Road, Whitechapel",30898.84886103394,26777.877123446873,5796.713317684534,0.4787234042553192
189,51.522596500000006,-0.161113413,"Dorset Square, Marylebone",24281.052721875836,27461.28238846155,922.1216305056205,0.44917257683215134
190,51.51236389,-0.06954201,"Leman Street, Aldgate",30665.933610064356,26486.669029567245,5586.145888957967,0.4791174152876281
191,51.51821864,-0.100791005,"West Smithfield Rotunda, Farringdon",28479.940937326726,27081.213960759313,3371.2897791485434,0.25374310480693457
192,51.52659961,-0.112432615,"Margery Street, Clerkenwell",27647.908917593173,27992.64345481628,2706.81221803018,0.3459416863672183
193,51.518144,-0.06275,"New Road  2, Whitechapel",31120.361707152217,27142.130766259594,6012.241283966946,0.5114263199369583
194,51.518153999999996,-0.062697,"New Road 1 , Whitechapel",31124.010664307192,27143.3406028685,6015.9075384811995,0.5114263199369583
195,51.50135267,-0.153194766,"Grosvenor Crescent, Belgravia",24890.237491409105,25111.852725884382,1955.208756394269,0.2104018912529551
196,51.52505151,-0.166304359,"Mallory Street, Marylebone",23913.96560703873,27725.349567996658,1370.0879298924099,0.4972419227738377
197,51.49358391,-0.16510139199999999,"Denyer Street, Knightsbridge",24085.22244980572,24226.82307241994,3007.5140127509617,0.3451536643026005
198,51.51681444,-0.151926305,"Hinde Street, Marylebone",24934.86752026163,26834.120718239894,280.96518106593004,0.3191489361702128
199,51.49464523,-0.158105512,"Cadogan Place, Knightsbridge",24568.06099074187,24357.091644406988,2751.371621072725,0.2872340425531915
200,51.50658458,-0.19900402600000003,"Campden Hill Road, Notting Hill",21695.35106202007,25614.614435797994,3704.7932401667076,0.5890464933018125
201,51.50274025,-0.14956920099999998,"Wellington Arch, Hyde Park",25138.05877808138,25272.572347955807,1782.4807672829304,0.18321513002364068
202,51.52683806,-0.130504336,"Endsleigh Gardens, Euston",26393.203823922784,27986.969252595358,1587.0496850317156,0.32387706855791965
203,51.51906932,-0.088285377,"Moorfields, Moorgate",29345.411337521422,27198.45114545882,4239.091053362075,0.33963750985027585
204,51.49094565,-0.181190899,"Old Brompton Road, South Kensington",22975.22214225908,23905.44249415575,3804.0097448623583,0.46493301812450755
205,51.51615461,-0.08242239900000001,"Wormwood Street, Liverpool Street",29760.816520013992,26884.855040609225,4655.165529141812,0.33609141055949565
206,51.48971651,-0.17019440800000002,"St. Luke's Church, Chelsea",23742.306981430607,23787.74027256106,3541.3186830981494,0.3754925137903861
207,51.49016361,-0.19039362,"Bramham Gardens, Earl's Court",22338.276382969998,23802.60387005619,4272.283738990748,0.5437352245862884
208,51.49066456,-0.166485083,"Chelsea Green, Chelsea",23997.271075051744,23899.65227010267,3345.2099751992473,0.3486997635933806
209,51.49481649,-0.13045856,"Horseferry Road, Westminster",26487.392321581137,24424.81925447579,2969.428414626726,0.07131599684791175
210,51.50275704,-0.155349725,"Knightsbridge, Hyde Park",24736.68000473283,25264.3083483059,1828.7546474189014,0.26359338061465726
211,51.49148474,-0.090220911,"Rodney Road , Walworth",29291.16292795076,24126.322187607613,5105.741255384369,0.23916469661150516
212,51.51476963,-0.18812973100000002,"Whiteley's, Bayswater",22427.729059000238,26543.7998369064,2729.291351891114,0.5571315996847912
213,51.50935342,-0.196422,"Notting Hill Gate Station, Notting Hill",21867.011007538502,25927.050341596274,3432.3094234429673,0.5882584712371947
214,51.50844614,-0.131961389,"Charles II Street, West End",26344.33351660073,25938.379694070056,1665.255830962998,0.09456264775413713
215,51.52891573,-0.115480888,"Great Percy Street, Clerkenwell",27429.747072549217,28244.846582330967,2608.2921859479175,0.4046493301812451
216,51.50742485,-0.134621209,"St. James's Square, St. James's",26162.586524614133,25820.05637588681,1623.3249322786576,0.10165484633569741
217,51.50654321,-0.12317969699999999,"Whitehall Place, Strand",26959.382269404217,25742.287880121585,2268.8197644942984,0.020094562647754142
218,51.50669284,-0.10313742599999999,"Poured Lines, Bankside",28350.327786800946,25794.808940249524,3477.844931394387,0.11386918833727344
219,51.49396755,-0.17873226,"Queen's Gate (Central), South Kensington",23137.601000017457,24245.859666164237,3431.568257690377,0.4405043341213554
220,51.51501025,-0.11275321699999999,"Carey Street, Holborn",27658.917981898587,26702.815150036913,2574.3417630266545,0.1879432624113475
221,51.50777049,-0.130699733,"Pall Mall East, West End",26433.83692538034,25865.453779992153,1780.566431335629,0.0748620961386919
222,51.53450449,-0.10699270599999999,"Liverpool Road (N1 Centre), Angel",28002.637049898185,28881.773384564003,3422.3300673829035,0.44326241134751776
223,51.49571828,-0.11088927400000001,"Kennington Road  , Vauxhall",27843.694647442288,24560.030787176656,3701.86868580488,0.05791962174940899
224,51.51838043,-0.073438925,"Fashion Street, Whitechapel",30377.81427371179,27148.84369955337,5269.898708055717,0.44680851063829785
225,51.5084448,-0.067176443,"Vaughan Way, Wapping",30841.650424001273,26055.029249027517,5819.42103592905,0.4696611505122144
226,51.5233534,-0.175116099,"Frampton Street, Paddington",23307.19143398234,27521.152929179458,1860.941505559462,0.5630417651694247
227,51.52443845,-0.138019439,"Warren Street Station, Euston",25878.514017869544,27706.725095002184,1008.7219908981211,0.3026004728132388
228,51.50545935,-0.10569204,"Colombo Street, Southwark",28176.533909861086,25652.996262458124,3372.8857418308553,0.11189913317572893
229,51.52200801,-0.151359288,"Beaumont Street, Marylebone",24959.62450440682,27412.874518474127,387.87675885282687,0.3687943262411348
230,51.49096258,-0.139625122,"Gloucester Street, Pimlico",25861.762017617395,23979.873480319715,3165.7966594816485,0.14736012608353033
231,51.51611887,-0.128585022,"Earnshaw Street , Covent Garden",26556.88900104718,26797.919265119504,1470.7438269001623,0.18991331757289204
232,51.4853572,-0.142207481,"Grosvenor Road, Pimlico",25698.253815963937,23351.750737470662,3749.689815165867,0.2194641449960599
233,51.52285301,-0.09999405199999999,"Berry Street, Clerkenwell",28521.86444211108,27598.198038463917,3456.0942338446116,0.3203309692671395
234,51.50645179,-0.170279555,"Triangle Car Park, Hyde Park",23689.850409510123,25649.31003302327,1997.179340745734,0.38061465721040194
235,51.49859784,-0.096191134,"Harper Road, Borough",28855.97861931054,24906.810683153482,4319.212761938912,0.14657210401891252
236,51.489932,-0.162727,"Royal Avenue 1, Chelsea",24260.303174573783,23824.703028913267,3339.6818831917108,0.3148148148148148
237,51.518908,-0.079249,"Brushfield Street, Liverpool Street",29973.032359172532,27196.93074743802,4866.353498794751,0.4385342789598109
238,51.5046364,-0.11654227800000001,"Jubilee Gardens, South Bank",27425.625896785612,25542.004578270862,2767.0344831536045,0.008668242710795904
239,51.53404294,-0.086379717,"Shoreditch Park, Hoxton",29434.09785617239,28867.639547906438,4689.876089462945,0.5256107171000789
240,51.53051587,-0.106408455,"Chadwell Street, Angel",28054.658003486868,28439.109454099467,3254.9387178817183,0.3912529550827424
241,51.52557531,-0.179592915,"Clifton Road, Maida Vale",22990.36303309661,27760.591111876915,2232.8695501522925,0.6260835303388496
242,51.51362054,-0.11676421099999999,"Houghton Street, Strand",27384.49685233888,26541.044332168443,2333.015325469506,0.14420803782505912
243,51.52248185,-0.154907218,"Westminster University, Marylebone",24712.072525720054,27459.37158553055,566.5905966466511,0.3853427895981088
244,51.50143293,-0.17865697100000003,"Kensington Gore, Knightsbridge",23122.1621051572,25076.47738576462,2803.6330366895736,0.39282899921197795
245,51.48677988,-0.11585396099999999,"Kennington Lane Tesco, Vauxhall",27524.55012986109,23556.799129557417,4251.136775415589,0.1773049645390071
246,51.51816295,-0.135025698,"Rathbone Street, Fitzrovia ",26104.060317787807,27013.898846200987,996.1463217549425,0.2427107959022853
247,51.50990837,-0.187842717,"Black Lion Gate, Kensington Gardens",22461.043500112326,26003.4995390673,2848.7948500356565,0.49802994483845553
248,51.49907558,-0.08566631599999999,"Long Lane , Bermondsey",29585.368740115693,24979.0189981664,4934.469796900358,0.243892828999212
249,51.50963123,-0.11904756300000001,"Embankment (Savoy), Strand",27237.41401719043,26093.178511846316,2335.793344711269,0.07643814026792752
250,51.529423,-0.097122,"Macclesfield Rd, St Lukes",28702.166248886788,28334.25349750361,3814.3908687299772,0.4137115839243499
251,51.486965000000005,-0.116625,"Vauxhall Street, Vauxhall",27470.46990488439,23576.01452322674,4204.727440678125,0.16390858944050435
252,51.49459148,-0.134234258,"Greycoat Street , Westminster",26225.845460920027,24393.097774901515,2886.6270785962824,0.08628841607565013
253,51.506766999999996,-0.12370199999999999,"Northumberland Avenue, Strand",26922.484517847668,25766.253479714593,2224.859556932746,0.027580772261623324
254,51.486575,-0.11728599999999999,"Oval Way, Lambeth",27425.67807868043,23531.448318147595,4216.89789291085,0.18242710795902287
255,51.494412,-0.173881,"South Kensington Station, South Kensington",23473.247663285598,24303.69635917645,3200.550140671276,0.40070921985815605
256,51.520994,-0.139016,"Howland Street, Fitzrovia",25819.104184251235,27321.787437812687,758.862560395191,0.2777777777777778
257,51.51643491,-0.124332175,"High Holborn , Covent Garden",26851.16796454444,26840.63536485136,1755.5273464819759,0.20567375886524822
258,51.49782999,-0.135440826,"Butler Place, Westminster",26132.882683536664,24751.22926390366,2520.978554242128,0.06934594168636724
259,51.49675303,-0.138733562,"Howick Place, Westminster",25907.296440663675,24625.603644656803,2557.0927730073267,0.08195429472025217
260,51.50391972,-0.11342628,"Waterloo Station 2, Waterloo",27644.00951185888,25467.850262703345,2990.980777550432,0.023640661938534282
261,51.536264,-0.133952,"Royal College Street, Camden Town",26127.21732362581,29029.45137521354,2221.8159801776137,0.4633569739952719
262,51.5291212008901,-0.171185284853,"Lord's, St. John's Wood",23563.93898035535,28169.606666097097,1905.05164770285,0.5870764381402679
263,51.519656,-0.132339,"Alfred Place, Bloomsbury",26286.289830300942,27184.749446350528,1184.682675993088,0.235618597320725
264,51.530344,-0.100168,"City Road, Angel",28488.152056458377,28431.216523241746,3648.947298669828,0.41883372734436564
265,51.5109192966489,-0.1511263847351,"Millennium Hotel, Mayfair",25006.95808706651,26179.7176153982,880.9955039508285,0.268715524034673
266,51.5173721,-0.1642075,"Harrowby Street, Marylebone",24080.9113724426,26874.699731982517,1043.5047124075036,0.42868400315208827
267,51.50024195,-0.15934065,"Harriet Street, Knightsbridge",24466.633986087778,24977.540615743055,2174.2529999197986,0.2872340425531915
268,51.520205,-0.174593,"Paddington Green, Paddington",23352.231401624027,27171.813039768982,1760.4154991893708,0.520882584712372
269,51.49775,-0.10987999999999999,"King Edward Walk, Waterloo",27907.94016687022,24787.8572710772,3602.0167814659967,0.05673758865248228
270,51.515208,-0.11786300000000001,"Sardinia Street, Holborn",27303.685838795704,26715.678332600888,2220.9761807821055,0.18282111899133174
271,51.50194596,-0.19439295199999998,"Kensington Town Hall, Kensington",22028.196389610617,25106.476936938154,3644.975840817918,0.5476753349093775
272,51.49188409,-0.125674815,"Millbank House, Pimlico",26827.92978629796,24107.10225154218,3412.4122788618897,0.08707643814026794
273,51.50535447,-0.11365654300000001,"Waterloo Bridge, South Bank",27623.909075917603,25627.046059872635,2892.147737281539,0.05791962174940899
274,51.49559291,-0.17907762600000002,"Natural History Museum, South Kensington",23109.119744479292,24426.076364633947,3302.8459687814907,0.4633569739952719
275,51.51431171,-0.200838199,"Turquoise Island, Notting Hill",21546.882726479656,26471.092417802574,3609.384936745893,0.6422379826635146
276,51.50686435,-0.150666888,"Stanhope Gate, Mayfair",25050.254488501116,25729.431120711,1326.6715131959638,0.24980299448384555
277,51.51953043,-0.13577731,"Charlotte Street, Fitzrovia",26048.018913017848,27164.69470077587,945.669985847663,0.2576832151300237
278,51.50935171,-0.14744969,"Farm Street, Mayfair",25266.59360478881,26011.786452834698,1054.9009019610257,0.2360126083530339
279,51.51310333,-0.13121385,"Frith Street, Soho",26382.99586625163,26457.792618096835,1407.1685602130867,0.15681639085894405
280,51.496481,-0.192404,"Marloes Road, Kensington",22181.304195509176,24501.93411123092,3884.2183434733597,0.5677698975571316
281,51.51352755,-0.130110822,"Moor Street, Soho",26458.3535888014,26506.940864267148,1456.564660273011,0.13750985027580773
282,51.49369988,-0.12139410099999999,"Fire Brigade Pier, Vauxhall",27120.017285474503,24316.71974063819,3397.40021687171,0.07407407407407408
283,51.51070161,-0.121723604,"Southampton Street, Strand",27048.593529025078,26207.48088150422,2116.8244358709385,0.08668242710795904
284,51.51013066,-0.155757901,"Upper Grosvenor Street, Mayfair",24687.66868377343,26083.872630833095,1058.3179941616575,0.301812450748621
285,51.521776,-0.068856,"Buxton Street 1, Shoreditch",30685.916010346846,27534.965857760893,5597.79220600316,0.5070921985815603
286,51.51066202,-0.142345694,"Clifford Street, Mayfair",25617.203035492086,26166.5339231634,1023.5029055957202,0.19936958234830576
287,51.49942855,-0.17970247600000003,"Imperial College, Knightsbridge",23055.118131577736,24851.693616269185,3011.835663556034,0.4263199369582349
288,51.51733427,-0.10360424800000001,"Snow Hill, Farringdon",28287.239811750827,26977.768203045038,3179.4188777468976,0.243892828999212
289,51.524826000000004,-0.176268,"Aberdeen Place, St. John's Wood",23223.16924315691,27682.97995294191,1987.4673881198923,0.5858944050433413
290,51.492461999999996,-0.159919,"Cadogan Gardens, Sloane Square",24448.23714634859,24111.051016731974,3016.9542963698705,0.29078014184397166
291,51.51809,-0.163609,"Shouldham Street, Marylebone",24120.446504054504,26955.605144175497,993.2747947069871,0.4318360914105595
292,51.51348,-0.17977,"Devonshire Terrace, Bayswater",23011.54878183501,26414.73557246258,2192.708394516677,0.4940898345153664
293,51.502319,-0.200742,"Holland Park, Kensington",21586.362658572703,25137.119453716063,4010.5847578358594,0.5807722616233255
294,51.52261762,-0.071653961,"Brick Lane Market, Shoreditch",30489.273808071972,27623.469451131095,5410.485989343338,0.4940898345153664
295,51.517703000000004,-0.154106,"George Street, Marylebone",24781.088007771265,26929.149865207175,350.9364372894827,0.33924349881796695
296,51.528187,-0.075375,"Columbia Road, Weavers",30214.744402087177,28236.230829665175,5240.8856511413305,0.5394011032308905
297,51.52289229,-0.171681991,"Penfold Street, Marylebone",23546.790400965314,27475.806393195962,1617.7045682260596,0.5299448384554768
298,51.51689296,-0.158249929,"George Place Mews, Marylebone",24495.744689186424,26831.789002272446,652.3192711824479,0.38100866824271085
299,51.50204238,-0.184400221,"Palace Gate, Kensington Gardens",22721.723439130874,25134.367740521877,3063.6619366277423,0.446414499605989
300,51.49418566,-0.18267094,"Gloucester Road Station, South Kensington",22863.48935682513,24263.324938447884,3582.4037971033667,0.47596532702915684
301,51.512303,-0.15998800000000002,"Speakers' Corner 2, Hyde Park",24387.95092399478,26318.142821918853,1030.6501101963222,0.33963750985027585
302,51.51222,-0.16078499999999998,"Speakers' Corner 1, Hyde Park",24332.860220665476,26307.51863405088,1077.2463474376411,0.3337273443656423
303,51.51994326,-0.17070433699999998,"Paddington Green Police Station, Paddington",23622.839870601645,27149.43603810729,1488.9244687375997,0.4732072498029945
304,51.493146,-0.099828,"Strata, Southwark",28619.202180244116,24293.763268303737,4466.16546087639,0.18321513002364068
305,51.519968,-0.169774,"Edgware Road Station, Paddington",23687.338501444145,27153.802974151768,1424.8588442278406,0.4889676910953507
306,51.49337264,-0.09968067,"Walworth Road, Southwark",28628.778518596344,24319.241230920044,4458.017207430911,0.185973207249803
307,51.488105,-0.11012100000000001,"Cleaver Street, Kennington",27918.910730634845,23714.47537631521,4365.18361771539,0.20685579196217496
308,51.485821,-0.149004,"Chelsea Bridge, Pimlico",25224.899447804826,23391.387505790655,3665.2653719996338,0.2856579984239559
309,51.504042999999996,-0.10531199999999999,"Southwark Station 1, Southwark",28206.99708303326,25496.118472398055,3468.2319760202827,0.0925925925925926
310,51.504044,-0.104778,"Southwark Station 2, Southwark",28244.067607055826,25497.189705882076,3500.9107258158283,0.10598896769109536
311,51.49456127,-0.15393398,"Eaton Square (South), Belgravia",24857.970240462862,24355.049553660472,2711.3854757794556,0.2249802994483846
312,51.490491,-0.14918599999999999,"Ebury Bridge, Pimlico",25199.122907468307,23910.580238305818,3145.5303482196764,0.19621749408983455
313,51.533379,-0.139159,"Harrington Square 2, Camden Town",25774.13500861058,28699.30609007328,1774.0043036078678,0.4373522458628842
314,51.493072,-0.129925,"Vincent Street, Pimlico",26529.401233921046,24231.700969948346,3160.4104378445963,0.09653270291568164
315,51.51397065,-0.09294031,"Cheapside, Bank",29037.129279566463,26622.822124397935,3952.055608243417,0.2470449172576832
316,51.499916999999996,-0.174554,"Exhibition Road, South Kensington",23411.23956521647,24914.934991623304,2731.415681752922,0.3849487785657999
317,51.489020000000004,-0.17524,"South Parade, Chelsea",23393.8311234852,23701.509464653238,3766.377791501475,0.4109535066981876
318,51.534473999999996,-0.12220299999999999,"Crinan Street, King's Cross",26947.440004246906,28851.182061457628,2570.546412051924,0.4408983451536643
319,51.496957,-0.173894,"Exhibition Road Museums, Knightsbridge",23465.281137388316,24586.792590838653,2965.151884265345,0.4440504334121356
320,51.524564,-0.116279,"Wren Street, Holborn",27386.832753593364,27759.312922674086,2384.5254435849865,0.31048069345941687
321,51.488852,-0.105593,"Kennington Station, Kennington",28231.230140003812,23805.703731965943,4506.280041391161,0.1863672182821119
322,51.518240000000006,-0.11655,"Red Lion Street, Holborn",27386.137387217823,27055.317136618687,2277.382902797452,0.23246650906225377
323,51.488124,-0.120903,"Vauxhall Walk, Vauxhall",27170.04459807949,23697.31051712777,3939.763236554981,0.14933018124507486
324,51.5338,-0.118677,"Killick Street, Kings Cross",27194.001181174885,28782.488697705237,2707.973334098875,0.4570527974783294
325,51.483145,-0.113134,"Kennington Oval, Oval",27723.88046450379,23157.306398804736,4693.552513217723,0.20724980299448387
326,51.495656,-0.114605,"Sail Street, Vauxhall",27585.858382017526,24546.449332788732,3525.3266226349065,0.06501182033096928
327,51.510101,-0.211358,"Walmer Road, Notting Hill",20828.1413989445,25984.766893780703,4412.32884749476,0.7025216706067771
328,51.515256,-0.058641,"Philpot Street, Whitechapel",31414.067222127895,26828.417684414802,6309.375761387915,0.5437352245862884
329,51.52568,-0.055312,"Bethnal Green Gardens, Bethnal Green",31614.304809760157,27994.159131948865,6573.017338763387,0.6185973207249804
330,51.52388,-0.065076,"Cheshire Street, Bethnal Green",30942.052168418944,27775.9542828915,5877.704237005299,0.5480693459416864
331,51.528936,-0.055894000000000006,"York Hall, Bethnal Green",31564.292640400323,28355.295970914158,6585.228178076419,0.6438140267927502
332,51.493381,-0.007542,"Jubilee Crescent, Cubitt Town",35027.01066875129,24490.32466252477,10244.432685114274,0.9944838455476754
333,51.50623,-0.022959999999999998,"Fishermans Walk West, Canary Wharf",33917.751091878454,25890.651650313084,8885.588898146547,0.8191489361702128
334,51.511088,-0.057159,"Shadwell Station, Shadwell",31529.241854073975,26367.48420071861,6457.1725349239405,0.512608353033885
335,51.515975,-0.053176999999999995,"Jubilee Street, Stepney",31791.186228181963,26918.47863770803,6683.822267725195,0.6059889676910953
336,51.504719,-0.06353099999999999,"Hermitage Court, Wapping",31105.680823623843,25647.248120641598,6159.899473948541,0.5212765957446809
337,51.505697,-0.070542,"St Katharines Way, Tower",30616.077221422194,25743.187767136114,5661.3568875256005,0.45902285263987397
338,51.508447,-0.055166999999999994,"Garnet Street, Shadwell",31675.324529544567,26077.363084286597,6638.919206285247,0.5981087470449173
339,51.487679,-0.021582,"Napier Avenue, Millwall",34069.20144424151,23829.569955899875,9523.224052455605,0.9858156028368795
340,51.49447,-0.014409,"East Ferry Road, Cubitt Town",34546.8713360806,24598.508724888467,9752.511240171456,0.9515366430260048
341,51.538071,-0.14466400000000001,"Parkway, Camden Town",25378.950643475793,29211.56774316114,2173.614578965287,0.5019700551615446
342,51.542138,-0.145393,"Castlehaven Road, Camden Town",25316.905076341107,29662.720459219214,2616.201836720516,0.5752561071710008
343,51.504749,-0.057544000000000005,"Wapping Lane, Wapping",31521.236230980372,25661.60131579652,6562.084885512147,0.5776201733648543
344,51.535179,-0.03338,"Gun Makers Lane, Old Ford",33107.809955059405,29091.54694034395,8254.282274315696,0.8167848699763594
345,51.516196,-0.029138,"Burdett Road, Mile End",33459.00168854659,26987.732570274355,8350.51657768031,0.7663514578408195
346,51.516000000000005,-0.038775,"Aston Street, Stepney",32790.7136342313,26947.955587061966,7682.702249765557,0.6934594168636723
347,51.541603,-0.138853,"Bonny Street, Camden Town",25772.0877186624,29614.727656805277,2644.4617541691023,0.545311268715524
348,51.534776,-0.071881,"Thurtle Road, Haggerston",30437.869022559782,28975.60335607981,5664.706503226001,0.6138691883372734
349,51.51417,-0.052099,"St. Mary and St. Michael Church, Stepney",31871.35285784572,26719.67520184684,6770.897490103413,0.5776201733648543
350,51.535579999999996,-0.08249,"Pitfield Street (North),Hoxton",29699.48423380489,29045.69600332968,5003.840262484726,0.5496453900709221
351,51.534464,-0.07634099999999999,"Whiston Road, Haggerston",30129.352245754184,28932.748290954944,5360.321372878777,0.5803782505910166
352,51.523538,-0.030556,"Southern Grove, Bow",33338.59706061066,27801.831685560726,8263.676300256257,0.7442868400315209
353,51.521564,-0.022694,"Cantrell Road, Bow",33890.11936114213,27596.953977445402,8798.08421217601,0.818360914105595
354,51.513757,-0.020467,"Lindfield Street, Poplar",34068.167192863155,26732.657398667507,8965.202663832433,0.8400315208825847
355,51.530535,-0.025491999999999997,"Mostyn Grove, Bow",33669.006958099984,28589.67471404132,8696.765165429091,0.8703703703703705
356,51.533283000000004,-0.028155,"Hewison Street, Old Ford",33475.994706941216,28890.388095105038,8566.215431128001,0.8699763593380615
357,51.529452,-0.027616,"Malmesbury Road, Bow",33524.88197907372,28465.222164252977,8533.490334331223,0.8297872340425533
358,51.496137,-0.019355,"Millharbour, Millwall",34198.404493672104,24774.644353230804,9371.280689197301,0.9148936170212767
359,51.498125,-0.011457,"Castalia Square, Cubitt Town",34740.80931020071,25010.666388427228,9846.573579327449,0.9515366430260048
360,51.499041,-0.020156999999999998,"Lightermans Road, Millwall",34133.976573549764,25096.18692429355,9235.304314489866,0.8703703703703705
361,51.489096,-0.009205,"Stebondale Street, Cubitt Town",34924.495601879025,24010.50751794214,10276.991956841726,1.0
362,51.49109,-0.018716,"Spindrift Avenue, Millwall",34257.97357614932,24214.40289120286,9579.986121955219,0.9736012608353034
363,51.521889,-0.046669999999999996,"Stepney Green Station, Stepney",32225.254330301366,27588.41074696192,7136.4764871721045,0.6213553979511427
364,51.527152,-0.058004999999999994,"Pott Street, Bethnal Green",31423.083909652953,28152.9461128861,6409.1070703254045,0.6079590228526399
365,51.5128711,-0.038986599999999996,"Flamborough Street, Limehouse",32785.35589767023,26599.492262405838,7690.092630048026,0.6650906225374311
366,51.487128999999996,-0.009001,"Saunders Ness Road, Cubitt Town",34944.61505468446,23792.078744326864,10362.894468439834,0.9621749408983453
367,51.509843,-0.02377,"Thornfield House, Poplar",33850.6646598691,26291.054134521546,8775.210478619461,0.7880220646178094
368,51.51328,-0.047784,"Albert Gardens, Stepney",32173.498363757302,26628.65066694378,7077.585672790105,0.6052009456264776
369,51.528828000000004,-0.013258,"Bromley High Street, Bromley",34523.01745728051,28422.765738759394,9513.130037405901,0.9247438928289993
370,51.525645000000004,-0.069543,"Granby Street, Shoreditch",30626.882161987596,27964.110943117616,5592.54473591985,0.5334909377462569
371,51.511811,-0.025626,"Canton Street, Poplar",33715.92074447757,26506.50278084216,8624.613226194684,0.797872340425532
372,51.506946,-0.058681,"Reardon Street, Wapping",31435.81700176405,25903.908870424464,6430.886245381075,0.5646178092986603
373,51.513073999999996,-0.06409400000000001,"Christian Street, Whitechapel",31042.005483756104,26575.65544252991,5952.567342795257,0.48817966903073284
374,51.508621999999995,-0.065006,"Pennington Street, Wapping",30991.798714360863,26078.723626480234,5963.46859533262,0.5693459416863672
375,51.522507,-0.041378,"Queen Marys, Mile End",32590.668811386015,27666.97801441091,7506.916019456735,0.6603624901497243
376,51.524677000000004,-0.03562,"The Green Bridge, Mile End",32983.77584681916,27919.090009048785,7922.3062728063,0.7088258471237195
377,51.50196,-0.016250999999999998,"South Quay East, Canary Wharf",34396.37832849444,25428.249116611754,9428.97996316236,0.8991331757289204
378,51.528169,-0.018703,"Bow Church Station, Bow",34147.18899086039,28339.20941548384,9129.237289134615,0.8920409771473602
379,51.52512,-0.015578,"Devons Road, Bow",34373.22827804854,28005.906060773617,9313.165580896208,0.9062253743104808
380,51.526534999999996,-0.028619,"Coborn Street, Mile End",33464.03201228965,28138.848789098993,8425.30693352502,0.7962962962962963
381,51.527058000000004,-0.025296000000000003,"Bow Road Station, Bow",33693.04755187116,28203.248161263735,8660.773154123488,0.8191489361702128
382,51.519265000000004,-0.021345,"Furze Green, Bow",33990.65458232307,27343.736727801996,8886.598096477892,0.8171788810086684
383,51.519806,-0.055730999999999996,"Sidney Street, Stepney",31602.595060890715,27339.93992636251,6500.097115954862,0.6063829787234043
384,51.522560999999996,-0.054883,"Cephas Street, Bethnal Green",31653.299297404825,27647.980948178127,6571.370878386828,0.587470449172577
385,51.502635,-0.022702,"South Quay West, Canary Wharf",33946.46791809841,25491.216822361486,8974.965643477102,0.8297872340425533
386,51.520893,-0.051394,"Cleveland Way, Bethnal Green",31900.368319032976,27468.86956411632,6804.223776868384,0.586682427107959
387,51.496454,-0.009506,"St John's Park, Cubitt Town",34881.33080276719,24828.46245453789,10022.967627626402,0.9688731284475967
388,51.520398,-0.026768,"Ackroyd Drive, Bow",33610.888445157994,27459.610724034166,8511.764961899471,0.7911741528762807
389,51.517475,-0.07585499999999999,"Bell Lane, Liverpool Street",30212.778450090264,27043.707323140727,5104.035990214201,0.3975571315996848
390,51.528692,-0.059091,"Clarkson Street, Bethnal Green",31343.180806401564,28322.261963369703,6361.957224651684,0.6347517730496455
391,51.519362,-0.074431,"Fournier Street, Whitechapel",30306.086735733086,27256.224964158173,5201.233415625319,0.4373522458628842
392,51.517842,-0.090075,"Fore Street, Guildhall",29224.770465712907,27058.67498780359,4116.017737873361,0.33215130023640665
393,51.509303,-0.025996,"Westferry DLR, Limehouse",33697.76455900943,26226.811881895672,8628.82828970574,0.760441292356186
394,51.511066,-0.053558,"Sutton Street, Shadwell",31779.269230793056,26371.67992750471,6705.403489610019,0.5401891252955083
395,51.532090999999994,-0.06142,"Pritchard's Road, Bethnal Green",31171.555924922082,28696.095464451617,6281.032664280535,0.6587864460204886
396,51.51422279999999,-0.055656,"Watney Market, Stepney",31624.305470107734,26718.982116528234,6524.200010226306,0.5524034672970843
397,51.516203999999995,-0.155525,"Portman Square, Marylebone",24686.80526233722,26759.909635929478,514.7899814563563,0.3459416863672183
398,51.500088,-0.21131599999999998,"Russell Gardens, Holland Park",20858.282403283476,24870.934298251726,4778.685608841662,0.6776989755713161
399,51.5112,-0.014438,"Chrisp Street Market, Poplar",34494.36066104466,26459.547797563224,9404.463938997651,0.8731284475965326
400,51.532513,-0.033085,"Ford Road, Old Ford",33136.251181110565,28795.521532050945,8214.059364259041,0.7966903073286054
401,51.528224,-0.037471,"Antill Road, Mile End",32844.74253537858,28310.2238319435,7837.191370886569,0.7702915681639086
402,51.518811,-0.011662,"Teviot Street, Poplar",34664.04555644051,27311.45134699685,9558.736843583782,0.9637509850275808
403,51.526041,-0.047218,"Bancroft Road, Bethnal Green",32174.895307983767,28049.279552569176,7135.776806404794,0.657210401891253
404,51.534137,-0.037366,"Driffield Road, Old Ford",32834.38002721037,28968.20342091957,7959.042346002794,0.7919621749408984
405,51.525940999999996,-0.036017,"Clinton Road, Mile End",32952.45160253672,28058.962259014224,7907.711483828885,0.7592592592592593
406,51.51549,-0.013475,"Langdon Park, Poplar",34548.24956630112,26938.594903758174,9440.210421797143,0.9353821907013398
407,51.511654,-0.179668,"Lancaster Gate , Bayswater",23023.68215322614,26211.77748876807,2249.051891600933,0.4799054373522459
408,51.504714,-0.014293,"Churchill Place, Canary Wharf",34524.0055391081,25738.29894478267,9506.847982490854,0.8687943262411348
409,51.503143,-0.008428,"Lancaster Drive, Blackwall",34935.93336036932,25574.601647940144,9938.031338534469,0.9578408195429472
410,51.503802,-0.215808,"Hansard Mews, Shepherds Bush",20536.31760256218,25276.488098425063,4906.079516042736,0.7222222222222222
411,51.507326,-0.14582699999999998,"Clarges Street, West End",25384.947683620412,25789.289499384206,1295.3109274364185,0.23286052009456265
412,51.486892,-0.170983,"Manresa Road, Chelsea",23695.391949118,23472.159097759606,3851.36302889484,0.3849487785657999
413,51.508896,-0.012412999999999999,"Newby Place, Poplar",34641.88632552704,26207.060240842082,9570.751540196481,0.8542159180457053
414,51.530326,-0.042744,"Twig Folly Bridge, Mile End",32472.600729435653,28534.25568512184,7510.9908583408605,0.7218282111899134
415,51.50357,-0.020068,"Jubilee Plaza, Canary Wharf",34126.52506741474,25600.1734636389,9134.339558938971,0.8861308116627267
416,51.528222,-0.069743,"Wellington Row, Bethnal Green",30605.439557523525,28250.42086659724,5625.213437979879,0.5748620961386919
417,51.531864,-0.066035,"Goldsmiths Row, Haggerston",30852.021886119765,28662.367428044876,5964.004825964716,0.6264775413711584
418,51.537349,-0.147154,"Gloucester Avenue, Camden Town",25208.242764225346,29126.869960661075,2074.4447940900554,0.4913317572892042
419,51.53385,-0.06992000000000001,"Queensbridge Road, Haggerston",30576.638877375575,28876.179192404757,5763.257480384423,0.6264775413711584
420,51.51793,-0.067937,"Old Montague Street, Whitechapel",30760.991587584285,27108.805335355195,5652.494926540731,0.4558707643814027
421,51.508981,-0.0069900000000000006,"Naval Row, Blackwall",35018.08037319762,26226.755368342303,9943.863263525702,0.8916469661150513
422,51.531090999999996,-0.075901,"Hoxton Station, Haggerston",30169.748858941428,28558.324081205617,5279.603339368305,0.5602836879432624
423,51.528302000000004,-0.144466,"Albany Street, Regent's Park",25420.25284987809,28125.160650701582,1114.754218828179,0.38849487785658
424,51.506613,-0.142844,"Green Park Station, West End",25594.044106117843,25715.223178003187,1424.7823530027274,0.18754925137903863
425,51.514115000000004,-0.033828,"Salmon Lane, Limehouse",33139.70518996037,26747.47707372086,8036.829177323697,0.7060677698975572
426,51.509591,-0.20466600000000001,"Lansdowne Walk, Notting Hill",21294.07552839452,25939.40743615196,3974.4060924347004,0.6438140267927502
427,51.526153,-0.10220800000000001,"Percival Street, Finsbury",28358.699748324463,27961.31621907736,3374.0025729208646,0.3565799842395587
428,51.539957,-0.14524600000000001,"Arlington Road, Camden Town",25333.254624271518,29420.35266966888,2376.169591047356,0.5267927501970056
429,51.517428,-0.10798699999999999,"New Fetter Lane, Holborn",27982.782463972922,26980.320099793287,2874.993144495603,0.2127659574468085
430,51.509474,-0.002275,"East India DLR, Blackwall",35343.88617608251,26290.523425442196,10263.62786520017,0.9625689519306542
431,51.498385999999996,-0.10791300000000001,"Westminster Bridge Road, Elephant & Castle",28042.690583233023,24862.137708575203,3662.7588235039966,0.05200945626477542
432,51.49605,-0.10419300000000001,"Gaywood  Street, Elephant & Castle",28307.718231823237,24608.95573055526,4026.8576640689466,0.13947990543735225
433,51.521564,-0.039264,"Harford Street, Mile End",32740.185885404324,27566.004999878845,7648.533351948078,0.6867612293144209
434,51.503446999999994,-0.016233,"Montgomery Square, Canary Wharf",34393.14382368006,25593.701221939264,9398.65573902384,0.8877068557919622
435,51.511542,-0.056666999999999995,"Watney Street, Shadwell",31562.05255595199,26418.895739254454,6484.554344213411,0.524822695035461
436,51.535678000000004,-0.062546,"Regent's Row , Haggerston ",31082.86194854323,29093.058400994953,6312.242615314626,0.6804570527974784
437,51.513548,-0.005659,"Aberfeldy Street, Poplar",35096.627566649055,26737.319131102908,9992.917964617971,0.9996059889676912
438,51.509423999999996,-0.219712,"Westfield Eastern Access Road, Shepherd's Bush",20250.05897601688,25895.31187293105,4995.133995496252,0.814026792750197
439,51.516009999999994,-0.0985,"King Edward Street, St Pauls",28645.33174526898,26839.64504607962,3543.1165994182243,0.25492513790386134
440,51.493978000000006,-0.127554,"Page Street, Westminster",26691.471570630718,24336.6978696039,3145.3360389792842,0.07722616233254531
441,51.501391,-0.20599099999999998,"Abbotsbury Road, Holland Park",21224.458716560548,25024.936910101358,4382.710098181741,0.6304176516942475
442,51.511624,-0.205921,"Ladbroke Grove Central, Notting Hill",21201.410710162585,26163.433473923156,4007.729016480665,0.6603624901497243
443,51.518369,-0.043371,"Rectory Square, Stepney",32464.671068793366,27202.950985638396,7357.408040053484,0.6721828211189914
444,51.51746,-0.12335,"Bury Place, Holborn",26916.41309838841,26956.41922816451,1810.3344006992115,0.2127659574468085
445,51.499286,-0.009152,"Preston's Road, Cubitt Town",34897.341200249386,25144.170482706366,9973.31342286312,0.9444444444444445
446,51.509943,-0.117619,"Somerset House, Strand",27335.689057913973,26130.41126317394,2411.172840545168,0.07919621749408984
447,51.521905,-0.063386,"Selby Street, Whitechapel",31065.14607312018,27559.35058646291,5977.721895368401,0.5303388494877856
448,51.509158,-0.22410300000000002,"Westfield Ariel Way, White City",19945.959642419475,25858.313940679625,5299.628221062919,0.8684003152088259
449,51.51616,-0.18697,"Bishop's Bridge Road West, Bayswater",22504.393825690087,26700.46629567709,2628.356095274823,0.5594956658786446
450,51.53213,-0.08299,"Pitfield Street Central, Hoxton",29674.853361571644,28660.993452085386,4840.35914037271,0.5078802206461781
451,51.503083000000004,-0.017676,"Upper Bank Street, Canary Wharf",34294.05907423375,25550.493989341165,9307.673861205172,0.8605200945626478
452,51.46925984,-0.141812513,"Wandsworth Rd, Isley Court, Wandsworth Road",25771.1388594865,21561.707052291516,5532.897733211349,0.3999211977935383
453,51.50403821,-0.21740009300000002,"Woodstock Grove, Shepherd's Bush",20425.142992245135,25300.071887546306,5001.532840478991,0.7549251379038613
454,51.47817208,-0.144690541,"Bradmead, Nine Elms",25546.051677973446,22548.072037499544,4527.906339954723,0.3995271867612293
455,51.476885100000004,-0.21589560100000002,"Finlay Street, Fulham",20603.220503479635,22281.95382354586,6563.536713738043,0.7844759653270291
456,51.48102131,-0.20997349699999998,"Aintree Street, Fulham",21003.36702892749,22752.129858036846,5947.0397756505,0.7210401891252955
457,51.47107905,-0.20784290800000002,"Elysium Place, Fulham",21178.436096090634,21649.72183403207,6682.993723721232,0.7076438140267928
458,51.47625965,-0.193254007,"Eel Brook Common, Walham Green",22177.804247303255,22250.94868558456,5627.394995892989,0.5929866036249015
459,51.4737636,-0.19701009600000002,"Irene Road, Parsons Green",21923.71112691828,21966.842754694953,6002.660642190038,0.6229314420803783
460,51.47518024,-0.167160736,"Surrey Lane, Battersea",23993.47759123803,22175.927379514294,5004.733751299218,0.5086682427107959
461,51.46086446,-0.187427294,"Wandsworth Town Station, Wandsworth",22624.976530377884,20548.31906615637,6964.453051928336,0.7537431048069346
462,51.50748124,-0.20553590800000002,"Lansdowne Road, Ladbroke Grove",21239.44328708353,25703.224424018204,4098.580136404894,0.6422379826635146
463,51.46193072,-0.18079178399999998,"Nantes Close, Wandsworth",23083.145820457095,20678.369606992375,6690.449239980431,0.6954294720252167
464,51.4729184,-0.13210270400000002,"Courland Grove, Wandsworth Road",26435.383455919713,21985.86651861886,5239.671245689905,0.34318360914105595
465,51.47761941,-0.149551631,"Queen's Circus, Battersea Park",25209.92735176001,22478.043991951476,4577.886337031742,0.3585500394011033
466,51.48438657,-0.20481514,"Normand Park, Fulham",21352.494985373458,23135.273063675646,5428.837169375523,0.653270291568164
467,51.468790500000004,-0.158230901,"Holden Street, Battersea",24631.716774565706,21480.672591431154,5594.514955262452,0.5204885736800631
468,51.46881971,-0.184318843,"William Morris Way, Sands End",22819.045029597735,21438.650047528063,6064.985337727396,0.6710007880220646
469,51.45995384,-0.190184054,"Morie Street, Wandsworth",22435.906796885538,20442.27901664641,7132.300496547529,0.7848699763593382
470,51.47073264,-0.12699406800000002,"Clarence Walk, Stockwell",26796.518251683883,21751.7811886009,5565.131123623707,0.38967691095350676
471,51.47950170000001,-0.141770709,"Battersea Park Road, Nine Elms",25745.124860915166,22701.129071311996,4399.945921204644,0.3183609141055949
472,51.47053858,-0.163041605,"Sheepcote Lane, Battersea",24292.590368846868,21666.73996764593,5449.536357234965,0.5275807722616234
473,51.48959104,-0.20937859399999997,"Vereker Road, West Kensington",21021.370078201697,23706.48347816037,5283.7502854199065,0.7088258471237195
474,51.49434708,-0.21580455899999998,"Brook Green South, Brook Green",20562.197834871928,24224.67450417977,5355.451180303538,0.6985815602836879
475,51.48606206,-0.214428378,"Greyhound Road, Hammersmith",20680.245141062915,23305.333295376127,5802.610419152669,0.7245862884160756
476,51.46706414,-0.19350207600000002,"South Park, Sands End",22185.81113912849,21227.569395827042,6519.229786770598,0.6962174940898346
477,51.45787019,-0.17469162300000002,"Spencer Park, Wandsworth Common",23518.308819643644,20237.20713677004,7000.661155029063,0.7072498029944838
478,51.46663393,-0.169821175,"Falcon Road, Clapham Junction",23832.421521480806,21220.57284823162,5972.216923056847,0.5894405043341214
479,51.47286577,-0.148059277,"Silverthorne Road, Battersea",25326.97274453142,21951.849683363485,5107.6262387250545,0.4263199369582349
480,51.49824168,-0.117495865,"Archbishop's Park, Waterloo",27377.721873113216,24828.924384752143,3178.488539293824,0.0
481,51.46916161,-0.174485792,"Fawcett Close, Battersea",23501.297727397832,21493.672610044392,5788.798763389011,0.6020488573680063
482,51.5190427,-0.204764421,"All Saints' Road, Portobello",21261.4465155667,26990.70208601831,3847.8421415994376,0.7210401891252955
483,51.48373225,-0.22385225600000003,"Rainville Road, Hammersmith",20032.005914493246,23030.228811997134,6478.475761062493,0.8022064617809298
484,51.50173215,-0.100292412,"Great Suffolk Street, The Borough",28562.15936253476,25248.08444480956,3897.469705452714,0.14066193853427894
485,51.49886563,-0.137424571,"Buckingham Gate, Westminster",25992.20817666329,24862.931327255646,2363.2249486780183,0.0677698975571316
486,51.50035306,-0.217515071,"Richmond Way, Shepherd's Bush",20427.14525209565,24889.919992415846,5157.928253493217,0.7387706855791962
487,51.46904022,-0.19627483,"Peterborough Road, Sands End",21987.736882181227,21442.648629145086,6421.614388059838,0.6910953506698189
488,51.48180515,-0.18027465,"World's End Place, West Chelsea",23064.13035490038,22890.18891533083,4639.458513308369,0.4747832939322301
489,51.51687069,-0.21387239600000002,"St. Mark's Road, North Kensington",20635.21539972363,26733.604167980055,4485.0559699120895,0.7427107959022853
490,51.48089844,-0.18385357300000002,"Thorndike Close, West Chelsea",22818.03951727404,22783.14855421483,4847.111073299135,0.516548463356974
491,51.51148696,-0.218190203,"Evesham Street, Avondale",20350.112022725283,26127.378974449675,4848.1760517297835,0.7828999211977936
492,51.47084722,-0.17070367,"Simpson Street, Battersea",23759.39261927185,21687.746218988177,5534.092067437811,0.5378250591016549
493,51.48267821,-0.117661574,"Ashmole Estate, Oval",27410.74075961612,23097.282541309396,4578.3383098958675,0.2612293144208038
494,51.48294452,-0.219346128,"Crabtree Lane, Fulham",20347.12301269408,22950.20096216901,6286.570476100802,0.7671394799054375
495,51.46841875,-0.199135704,"Broomhouse Lane, Parsons Green",21790.664115942825,21368.620360274537,6583.502250732494,0.7080378250591017
496,51.499680600000005,-0.221791552,"Blythe Road West, Shepherd's Bush",20132.036223295494,24807.88862441291,5460.438703469505,0.7675334909377464
497,51.47729232,-0.16478637,"Ethelburga Estate, Battersea Park",24152.53561697583,22415.017060175218,4737.304478063881,0.4661150512214342
498,51.46437067,-0.17461940399999998,"Grant Road West, Clapham Junction",23505.30127448459,20960.47493724074,6301.746523283113,0.6312056737588653
499,51.51632095,-0.202608612,"All Saints Church, Portobello",21418.505901556375,26691.591948175366,3708.0809024921573,0.661150512214342
500,51.46321128,-0.215550761,"Montserrat Road , Putney",20664.248854370642,20761.390542544803,7704.595197251005,0.8203309692671396
501,51.47439218,-0.163347594,"Albert Bridge Road, Battersea Park",24260.57689847755,22094.89860736541,5031.912987896049,0.46493301812450755
502,51.48335692,-0.21630554600000002,"Everington Street, Fulham",20557.200701580077,23001.22014069688,6094.9365099973365,0.7304964539007093
503,51.51854104,-0.034903714,"Mile End Stadium, Mile End",33051.81595394542,27237.839113422815,7945.169819747225,0.7143420015760442
504,51.54100708,-0.14326094,"Hawley Crescent, Camden Town",25467.996016526857,29540.662991554214,2511.674444728335,0.5610717100078803
505,51.47311696,-0.137235175,"Stewart's Road, Nine Elms",26078.251025364283,21998.87040268237,5148.055074921389,0.36643026004728135
506,51.51563007,-0.049067242999999997,"Aylward Street, Stepney",32077.456133466854,26887.705232470034,6970.704888119988,0.6315996847911741
507,51.51542791,-0.02356501,"Stainsby Road , Poplar",33848.11233394529,26912.72173791207,8740.51281949107,0.8159968479117415
508,51.53658514,-0.075885686,"Dunston Road , Haggerston",30154.734673952218,29169.544001276226,5471.197860775919,0.6091410559495666
509,51.53571683,-0.060291813,"Ada Street, Hackney Central",31239.13687579293,29101.522724079812,6463.018759209901,0.6910953506698189
510,51.53642464,-0.054162264,"Victoria Park Road, Hackney Central",31662.293389539293,29191.556994842977,6893.079841188995,0.7470449172576833
511,51.48724429,-0.205279052,"Star Road, West Kensington",21312.47892601353,23452.39104926595,5233.46413030173,0.661544523246651
512,51.53603947,-0.026262677,"Wendon Street, Old Ford",33599.011217371415,29200.568640913436,8757.210119430423,0.8640661938534279
513,51.52458353,-0.058631453,"Finnis Street, Bethnal Green",31387.19650495806,27866.065601959446,6330.63705787743,0.5933806146572105
514,51.45799126,-0.184806157,"Alma Road, Wandsworth",22815.048154804113,20233.202999905945,7196.904979290228,0.7899921197793538
515,51.47732253,-0.13874872300000002,"Thessaly Road North, Nine Elms",25961.205910685516,22464.04158917736,4669.244937586066,0.35066981875492514
516,51.47505096,-0.15090837099999999,"Alfreda Street, Battersea Park",25122.896155681927,22189.936841494025,4864.895928500651,0.4062253743104807
517,51.47569809,-0.20587627,"Chesilton Road, Fulham",21302.48010577196,22166.913942723448,6195.100854864298,0.6977935382190702
518,51.46199911,-0.206240805,"Putney Bridge Road, East Putney",21314.49033218062,20642.34938207947,7450.914070008116,0.8644602048857369
519,51.47893931,-0.20848529300000002,"St. Peter's Terrace, Fulham",21112.40825795407,22523.045853644,6042.159379932607,0.7214342001576044
520,51.49208492,-0.229116862,"Bridge Avenue, Hammersmith",19643.85852935078,23950.568526437477,6285.015297988186,0.8455476753349094
521,51.47727637,-0.18921046600000002,"Michael Road, Walham Green",22455.906867746075,22370.99365631721,5382.913437411982,0.5606776989755713
522,51.50630441,-0.087262995,"Duke Street Hill, London Bridge",29453.4877484639,25780.284124544734,4527.817189918173,0.260441292356186
523,51.50542628,-0.150817316,"Park Lane, Mayfair",25043.85398241812,25569.189201460715,1487.039953690474,0.25492513790386134
524,51.46230566,-0.175407201,"Plough Terrace, Clapham Junction",23456.283991014425,20729.389451595285,6537.708472050039,0.6627265563435777
525,51.46489445,-0.17302926,"Grant Road East, Clapham Junction",23614.341420330195,21021.498327985726,6215.637300003953,0.6252955082742317
526,51.50659035,-0.216104479,"Queensdale Road, Shepherd's Bush",20508.17263692328,25586.178636519442,4829.310348427845,0.7379826635145785
527,51.47993289,-0.19411695,"Fulham Broadway, Walham Green",22107.77672853331,22658.099445747474,5323.2462850902175,0.5945626477541371
528,51.47514228,-0.18727898699999998,"Imperial Road, Sands End",22595.95971018239,22136.907412025757,5522.673765494187,0.611899133175729
529,51.48176572,-0.185273723,"Hortensia Road, West Brompton",22717.001724770627,22877.18279876068,4813.841405691909,0.5122143420015761
530,51.51092871,-0.214594781,"Sirdar Road, Avondale",20601.20528813824,26071.359215514065,4613.586464536032,0.7454688731284476
531,51.5129814,-0.219486603,"Freston Road, Avondale",20256.076500196417,26291.439012931805,4912.354100534139,0.8006304176516943
532,51.51510818,-0.208565479,"Blenheim Crescent, Ladbroke Grove",21008.354421690266,26546.536831586593,4131.782303062785,0.6926713947990544
533,51.46079243,-0.212607684,"Oxford Road, Putney",20875.328140325946,20497.293400282477,7805.315631273168,0.8569739952718677
534,51.46745485,-0.172293499,"Ingrave Street, Battersea",23658.356668871347,21307.60478661282,5927.398014523213,0.5929866036249015
535,51.47816972,-0.18243547,"Upcerne Road, West Chelsea",22924.07997505927,22482.03698986434,5067.847296983221,0.5074862096138691
536,51.4795738,-0.17903854,"Lots Road, West Chelsea",23156.16543886524,22644.097637619503,4823.588632096868,0.47241922773837675
537,51.48796408,-0.161765173,"Ormonde Gate, Chelsea",24332.59780881829,23607.459228951804,3533.647108803067,0.3065405831363278
538,51.53727795,-0.079201849,"Hertford Road, De Beauvoir Town",29922.64835966422,29240.568708398816,5286.880474070035,0.5878644602048858
539,51.53932857,-0.074284675,"Haggerston Road, Haggerston ",30257.77166869669,29477.65813635956,5690.567611510329,0.6579984239558708
540,51.4710956,-0.157850096,"Culvert Road, Battersea",24651.723236712452,21737.767736287293,5336.650598662815,0.4854215918045706
541,51.51612862,-0.12090940800000001,"Newton Street, Covent Garden",27089.607563299447,26812.657741703413,1995.5995309170548,0.17769897557131603
542,51.45816465,-0.20600248,"Manfred Road, East Putney",21341.502011332355,20216.190907605313,7807.620189141413,0.9381402679275019
543,51.49263658,-0.234094148,"Hammersmith Town Hall, Hammersmith",19296.729625650492,24003.587655605545,6564.267280343617,0.8770685579196218
544,51.5129006,-0.214762686,"Grenfell Road, Avondale",20584.198169092502,26290.43959298139,4588.668201554981,0.7529550827423168
545,51.48512191,-0.17497190199999998,"The Vale, Chelsea",23423.262018530077,23268.33080537725,4144.6744763067645,0.4192277383766746
546,51.47515398,-0.159169801,"Prince of Wales Drive, Battersea Park",24548.6833219337,22186.934069326177,4899.99157356383,0.42592592592592593
547,51.48795853,-0.18740450600000003,"Harcourt Terrace, West Brompton",22551.93792043056,23562.435686985234,4328.279686989783,0.5319148936170213
548,51.51787005,-0.201005397,"Westbourne Park Road, Portobello",21525.544867398537,26866.657511634432,3588.146283728536,0.6741528762805359
549,51.52456169,-0.165668686,"Broadley Terrace, Marylebone",23959.443985016376,27671.965124635404,1304.5276790048467,0.49172576832151305
550,51.48321729,-0.211860644,"Humbolt Road, Fulham",20866.315281232004,22993.218936987367,5873.230016959747,0.6985815602836879
551,51.50070305,-0.129698963,"Storey's Gate, Westminster",26523.40424517315,25081.01430851189,2428.396995343523,0.021670606776989752
552,51.52059714,-0.032566532999999995,"Mile End Park Leisure Centre, Mile End",33207.87289208066,27470.926092075795,8109.800788704037,0.7529550827423168
553,51.46239255,-0.16829214,"St. John's Road, Clapham Junction",23950.46706265658,20751.399437782093,6408.950189709813,0.620173364854216
554,51.46760141,-0.20682737,"Ranelagh Gardens, Fulham",21258.467219453873,21264.57898802284,6953.525241819255,0.7494089834515367
555,51.45752945,-0.192165613,"Ram Street, Wandsworth",22304.85926705756,20169.176936274423,7434.635290973047,0.8317572892040976
556,51.45705988,-0.200806304,"Santos Road, Wandsworth",21705.637386704155,20102.150479041185,7740.84695565388,0.921985815602837
557,51.46134382,-0.159322467,"Clapham Common Northside, Clapham Common",24576.699573434176,20650.3642058282,6426.510468626502,0.5748620961386919
558,51.473611,-0.191803,"Sandilands Road, Walham Green",22285.881284900897,21958.788261921465,5825.639326075799,0.6193853427895981
559,51.491026,-0.209121,"Gwendwr Road, West Kensington",21035.354004370427,23866.553953998635,5172.77320905775,0.7174940898345155
560,51.509223999999996,-0.21601599999999999,"Rifle Place, Avondale",20507.17272663786,25879.311081227468,4749.3534409045305,0.7509850275807722
561,51.47250956,-0.122831913,"Binfield Road, Stockwell",27080.622753751217,21956.85873579947,5466.021765191027,0.3754925137903861
562,51.511891,-0.107349,"Tallis Street, Temple",28042.995983101282,26365.50469995805,3014.1197215488764,0.15563435776201737
563,51.470131,-0.20464000000000002,"Hurlingham Park, Parsons Green",21403.550210528905,21549.70771333328,6635.865784640649,0.7060677698975572
564,51.496664,-0.22386799999999998,"Little Brook Green, Brook Green",19996.00494027602,24468.803599253442,5729.541782690307,0.7683215130023641
565,51.460333,-0.16702899999999998,"Abyssinia Close, Clapham Junction",24043.97745203729,20524.482470837218,6616.566846103993,0.6379038613081167
566,51.4619230679,-0.16529785669299998,"Limburg Road, Clapham Common",24159.847573904422,20704.38134899785,6420.934248855642,0.6249014972419228
