,lat,lon,name,projected_lon,projected_lat,centroid_distance,travel_time
0,51.52916347,-0.109970527,"River Street , Clerkenwell",27811.388446635683,28282.2703690748,2968.3132497467805,22.293144208037823
1,51.49960695,-0.197574246,"Phillimore Gardens, Kensington",21813.727944294733,24840.82796555708,3969.751444408451,32.78959810874705
2,51.52128377,-0.084605692,"Christopher Street, Liverpool Street",29594.34266148755,27451.47518647581,4503.092526721475,23.073286052009454
3,51.53005939,-0.120973687,"St. Chad's Street, King's Cross",27045.344112923183,28362.269050930427,2336.626317478545,24.23167848699763
4,51.49313,-0.156876,"Sedding Street, Sloane Square",24657.683763620986,24190.679445643647,2899.4346642257365,15.366430260047286
5,51.51811784,-0.144228881,"Broadcasting House, Marylebone",25465.443586844296,26992.639642519902,362.06698932101546,15.768321513002366
6,51.53430039,-0.16807429999999998,"Charlbert Street, St. John's Wood",23765.376605300124,28751.169731627422,2163.8606926480893,34.917257683215134
7,51.52834133,-0.17013448399999995,"Lodge Road, St. John's Wood",23639.02229163931,28084.672708070168,1794.6379902570404,34.46808510638297
8,51.5073853,-0.096440751,"New Globe Walk, Bankside",28813.219009397813,25883.913070465587,3885.107696219079,10.732860520094563
9,51.50597426,-0.092754157,"Park Street, Bankside",29073.2360069768,25733.6070493531,4178.839120062041,12.576832151300238
10,51.52395143,-0.122502346,"Brunswick Square, Bloomsbury",26956.713904699835,27680.066320300077,1950.870704844861,17.517730496453904
11,51.52168078,-0.130431727,"Malet Street, Bloomsbury",26412.903311783262,27413.376565742445,1352.542942310937,16.122931442080382
12,51.51991453,-0.136039674,"Scala Street, Fitzrovia",26028.72160852814,27206.9599765944,932.4635904387833,15.69739952718676
13,51.52994371,-0.123616824,"Belgrove Street , King's Cross",26862.2763457494,28344.692840710777,2176.8396238034343,24.609929078014186
14,51.51772703,-0.127854211,"Great Russell Street, Bloomsbury",26603.035415434762,26978.116312607217,1496.24783880117,12.009456264775416
15,51.52635795,-0.125979294,"Cartwright Gardens , Bloomsbury",26708.570908625552,27941.59315753999,1829.150854979278,19.43262411347518
16,51.5216612,-0.109006325,"Hatton Wall, Holborn",27899.86441996679,27449.41171409711,2818.8655738999964,15.74468085106383
17,51.51477076,-0.12221963,"Drury Lane, Covent Garden",27002.54476602701,26659.268355746608,1934.6566527733585,9.50354609929078
18,51.52505093,-0.13116108699999998,"Taviton Street, Bloomsbury",26352.70951297154,27786.995590519426,1443.4391111738125,19.408983451536646
19,51.52773634,-0.135273468,"Drummond Street , Euston",26059.719835237334,28078.452451767545,1397.202320424144,21.560283687943265
20,51.53007835,-0.13884627,"Hampstead Road (Cartmel), Euston",25805.174466202207,28332.676568866445,1455.3137178248107,24.278959810874706
21,51.5222641,-0.114079481,"Northington Street , Holborn",27546.06303885415,27507.39353710311,2478.972079077098,16.95035460992908
22,51.51943538,-0.119123345,"Red Lion Square, Holborn",27204.117475885407,27183.70242252634,2099.323347357711,13.640661938534281
23,51.51908011,-0.124678402,"British Museum, Bloomsbury",26819.595121777704,27134.284073330433,1712.6853975590734,13.3096926713948
24,51.52728093,-0.11829517,"Ampton Street , Clerkenwell",27239.14714776416,28057.956801558463,2354.7551297311666,20.87470449172577
25,51.51382102,-0.107927706,"Bouverie Street, Temple",27997.273898463292,26579.16984411536,2927.4186150793635,9.858156028368795
26,51.52351808,-0.143613641,"Bolsover Street, Fitzrovia",25492.90148773488,27594.473070482403,662.4218557457667,20.189125295508276
27,51.513735,-0.193487,"Hereford Road, Bayswater",22058.721039055734,26419.507656072936,3115.4961471967,34.84633569739953
28,51.52915444,-0.093421615,"Windsor Terrace, Hoxton",28959.704078040668,28311.06293375618,4050.6762654238423,25.886524822695037
29,51.52953709,-0.08335332299999999,"Fanshaw Street, Hoxton",29657.202440424328,28371.886189572484,4735.299584086749,28.88888888888889
30,51.52469624,-0.084439283,"Leonard Circus , Shoreditch",29595.951840421036,27831.39531515489,4553.901724807583,24.893617021276597
31,51.51681603,-0.067827542,"Altab Ali Park, Whitechapel",30771.86101160981,26985.08353663541,5663.535732478676,28.321513002364068
32,51.5341235,-0.129386874,"Pancras Road, King's Cross",26450.02173776251,28799.420572284056,2200.6035561673007,26.217494089834517
33,51.50173726,-0.184980612,"De Vere Gardens, Kensington",22682.268933457384,25099.4250292205,3116.3073421991803,26.903073286052013
34,51.49159394,-0.192369256,"Penywern Road, Earl's Court",22197.143459416842,23958.33115584546,4250.37340042108,39.73995271867612
35,51.4973875,-0.19724558600000006,"Abingdon Villas, Kensington",21842.629568403918,24594.48627851813,4089.104553749499,34.46808510638297
36,51.5263778,-0.07813092099999999,"Shoreditch High Street, Shoreditch",30028.801506385174,28029.94027296364,5015.74888475927,29.07801418439717
37,51.52127071,-0.0755789,"Commercial Street, Shoreditch",30220.8348358988,27466.461611275707,5128.627513506045,27.801418439716315
38,51.52001715,-0.08391116800000001,"Sun Street, Liverpool Street",29646.23242248516,27311.83311223137,4544.7513982119735,23.498817966903072
39,51.53099181,-0.093903825,"Wenlock Road , Hoxton",28920.918919616845,28514.588394037248,4082.1004083766015,27.163120567375884
40,51.52026,-0.157183945,"Crawford Street, Marylebone",24560.29720551378,27208.219075296627,569.5077810272346,23.35697399527187
41,51.522511,-0.162298,"Boston Place, Marylebone",24199.08350158675,27449.70535049963,991.6864355670075,27.54137115839244
42,51.507131,-0.06691,"Nesham Street, Wapping",30864.007502424913,25909.365776063496,5868.132940196933,29.361702127659576
43,51.52334476,-0.183846408,"Warwick Avenue Station, Maida Vale",22701.356834325547,27505.116137122357,2449.1503295069765,35.839243498817964
44,51.51248445,-0.099141408,"Godliman Street, St. Paul's",28611.0019375727,26446.29078269468,3554.7201248323463,11.938534278959812
45,51.50706909,-0.145904427,"Curzon Street, Mayfair",25380.296726437096,25760.5733837446,1322.4179799977894,14.089834515366432
46,51.52867339,-0.08745937599999999,"East Road, Hoxton",29374.808127215947,28268.347782312983,4435.299513702624,27.65957446808511
47,51.52671796,-0.104298194,"Finsbury Library , Finsbury",28212.028008112247,28020.404487739932,3250.026869214202,21.631205673758867
48,51.52295439,-0.094934859,"Roscoe Street, St. Luke's",28872.664458548035,27618.6060964622,3805.9008672827613,20.260047281323878
49,51.50999229999999,-0.14349526599999998,"Grafton Street, Mayfair",25539.294396581085,26090.0057895646,1056.5112438271954,11.725768321513005
50,51.52174785,-0.094475072,"Golden Lane, Barbican",28908.0681347072,27485.216218872607,3823.614964087138,19.716312056737586
51,51.51707521,-0.08668554199999999,"Finsbury Circus, Liverpool Street",29462.245462236577,26979.520303227207,4354.141945171798,20.000000000000004
52,51.52058381,-0.15470141099999998,"Paddington Street, Marylebone",24731.680613666234,27248.58383637332,423.94833065404526,22.671394799054376
53,51.52334672,-0.120202614,"Guilford Street , Bloomsbury",27118.033910837166,27616.893522870123,2086.417739566702,17.092198581560286
54,51.52452699,-0.079248081,"New Inn Yard, Shoreditch",29956.685607036983,27822.012373642043,4908.261577050645,27.139479905437355
55,51.53176825,-0.114329032,"Rodney Street, Angel",27501.492497513264,28564.2342492432,2829.054578081167,25.886524822695037
56,51.52644828,-0.172190727,"Lisson Grove, St. John's Wood",23501.602174551368,27870.512365601695,1802.3055959042854,32.36406619385343
57,51.49738251,-0.089446947,"Great Dover Street, Borough",29327.784052356583,24783.81563846834,4791.412680844236,12.458628841607569
58,51.4907579,-0.106323685,"Cotton Garden Estate, Kennington",28174.999511466303,24016.41063487748,4316.681872808893,12.81323877068558
59,51.53089041,-0.089782579,"Murray Grove , Hoxton",29207.165053877867,28510.76712568206,4349.341724439552,29.172576832151304
60,51.50946212,-0.124749274,"William IV Street, Strand",26842.097577436678,26064.207442354502,1996.440808467264,5.815602836879432
61,51.52522753,-0.13518856,"Gower Place , Euston",26072.725687008973,27799.509881702867,1218.1194460115355,20.520094562647753
62,51.51795029,-0.108657431,"Holborn Circus, Holborn",27934.748928377085,27037.218970984657,2826.0491508793516,13.3096926713948
63,51.51882555,-0.108028472,"Hatton Garden, Holborn",27975.883856366505,27135.71547686038,2868.2705332870714,13.853427895981087
64,51.52059681,-0.116688468,"Theobalds Road , Holborn",27369.77837920538,27317.25234956472,2276.203774568533,14.42080378250591
65,51.53136059,-0.117069978,"Calshot Street , King's Cross",27312.48261821317,28513.98547631127,2643.029330987934,26.524822695035464
66,51.5154186,-0.098850915,"Newgate Street , St. Paul's",28622.685012119036,26773.222215394053,3525.195070997392,19.59810874704492
67,51.52352001,-0.108340165,"Farringdon Lane, Clerkenwell",27940.748769831407,27657.38944269912,2895.3912740177266,18.085106382978726
68,51.52572618,-0.08848618800000001,"Old Street Station, St. Luke's",29312.126168427203,27938.62493809787,4295.2832236105605,25.059101654846337
69,51.48591714,-0.124469948,"Vauxhall Cross, Vauxhall",26928.60964139327,23445.456535092406,4042.1926005844753,10.047281323877069
70,51.53219984,-0.105480698,"Torrens Street, Angel",28114.17940086496,28628.108952220617,3392.3209181941443,25.48463356973995
71,51.52559505,-0.14408389300000002,"Longford Street, Regent's Park",25454.40633783299,27824.6980049579,843.9190085852824,21.796690307328607
72,51.52341837,-0.124121774,"Russell Square Station, Bloomsbury",26845.85299100174,27617.88337225074,1826.0778061359672,16.85579196217494
73,51.52486887,-0.099489485,"Sadlers Sports Centre, Finsbury",28551.054456836515,27823.360884619207,3527.051994331631,20.49645390070922
74,51.50069361,-0.102091246,"Webber Street , Southwark",28440.26367447845,25129.31246554569,3847.921828681408,6.6193853427896
75,51.52025302,-0.141327271,"Great Titchfield Street, Fitzrovia",25660.79515185406,27235.27963966105,580.7902613597026,17.588652482269506
76,51.514274,-0.111257,"Chancery Lane, Holborn",27764.883450370253,26623.59104396784,2690.905514070835,9.929078014184396
77,51.50963938,-0.13151094900000002,"Panton Street, West End",26372.2133442208,26071.919678154318,1600.7516640625374,5.886524822695036
78,51.51593725,-0.111778348,"Breams Buildings, Holborn",27723.921653398316,26807.68456629562,2626.817676240499,11.158392434988182
79,51.50064702,-0.078600401,"Tanner Street, Bermondsey",30071.388216329884,25166.688760450026,5309.683906324789,20.16548463356974
80,51.48947903,-0.115156562,"Sancroft Street, Vauxhall",27565.254113809282,23858.31071630746,4031.3784233163897,8.936170212765958
81,51.51646835,-0.079684557,"Devonshire Square, Liverpool Street",29949.92648647176,26924.740532652733,4842.919001419862,21.20567375886525
82,51.51858757,-0.132053392,"Bayley Street , Bloomsbury",26309.14616007236,27066.39807838868,1200.4475302158955,13.073286052009458
83,51.5262503,-0.123509611,"Tavistock Place, Bloomsbury",26880.25453092722,27934.010507957748,1977.675871565578,19.338061465721037
84,51.53301907,-0.139174593,"Harrington Square, Camden Town",25774.071687117157,28659.238068850802,1736.9021915161475,26.028368794326244
85,51.49368637,-0.111014912,"Walnut Tree Walk, Vauxhall",27840.804411571735,24333.767440310883,3855.928055620956,4.75177304964539
86,51.49889832,-0.100440521,"Borough Road, Elephant & Castle",28560.05877464148,24932.570573242407,4051.5935763301595,6.6430260047281315
87,51.53440868,-0.109025404,"Cloudesley Road, Angel",27861.884922802274,28867.467382286468,3296.2775450898625,27.5177304964539
88,51.49506109,-0.08581448900000001,"Bricklayers Arms, Borough",29586.760980710766,24532.162528830897,5139.679282201964,15.200945626477543
89,51.5208417,-0.097340162,"Aldersgate Street, Barbican",28711.855714096568,27379.237291857982,3617.6773899506,19.007092198581557
90,51.53095071,-0.078505384,"Falkirk Street, Hoxton",29989.45503221481,28537.967836849482,5101.077130019141,32.245862884160765
91,51.49792478,-0.183834706,"Gloucester Road (North), Kensington",22772.353990946707,24677.27830518331,3333.381920021593,28.226950354609933
92,51.52554222,-0.138231303,"Hampstead Road, Euston",25860.68697092865,27829.139927137494,1079.3450719138093,24.066193853427894
93,51.51457763,-0.158264483,"Old Quebec Street, Marylebone",24501.217724067392,26574.194191161343,774.6577754270301,21.300236406619387
94,51.49043573,-0.122806861,"Albert Embankment, Vauxhall",27031.225718393085,23951.084524911275,3650.893179882864,5.886524822695036
95,51.51155322,-0.0929401,"Queen Street, Bank",29044.15284374752,26353.897362781485,3997.3292881071147,14.491725768321512
96,51.51340693,-0.076793375,"Jewry Street, Aldgate",30159.545522796747,26589.44643517173,5072.184426647752,21.773049645390078
97,51.50472376,-0.192538767,"Vicarage Gate, Kensington",22149.3001117315,25418.67240390522,3381.615590243575,31.205673758865252
98,51.51159481,-0.077121322,"Crosswall, Tower",30142.07983986527,26387.260706660425,5077.399786108657,21.631205673758867
99,51.51552971,-0.190240716,"Westbourne Grove, Bayswater",22279.11367870335,26624.729339115875,2862.1388308693013,35.29550827423168
100,51.51410514,-0.147301667,"Woodstock Street, Mayfair",25263.48044466092,26540.84188495911,536.7546987984966,16.40661938534279
101,51.52600832,-0.096317627,"Finsbury Leisure Centre, St. Luke's",28767.864314984152,27955.841119323013,3768.413117886176,21.98581560283688
102,51.49812559,-0.132102166,"Abbey Orchard Street, Westminster",26363.86513448393,24790.024432691655,2589.3177300207158,1.93853427895981
103,51.51563144,-0.132328837,"Soho Square , Soho",26298.423456742647,26737.055752524786,1231.3737453074891,12.31678486997636
104,51.53304322,-0.17252867800000002,"Wellington Road, St. John's Wood",23459.823876755283,28603.58493841588,2262.226619740745,38.39243498817967
105,51.5100172,-0.157275636,"Park Lane , Hyde Park",24582.629842448994,26068.596556271343,1117.7783883039037,18.085106382978726
106,51.51580998,-0.105270275,"Stonecutter Street, Holborn",28175.999262151017,26805.20365072324,3077.384379473615,13.049645390070921
107,51.49646288,-0.183289032,"Gloucester Road (Central), South Kensington",22814.280114822992,24515.589236904434,3422.3188377714227,29.739952718676125
108,51.52451738,-0.158963647,"Park Road (Baker Street), Regent's Park",24424.865216240392,27678.72330902025,925.7265577021582,28.416075650118206
109,51.51423368,-0.07353765400000001,"Braham Street, Aldgate",30383.107997022773,26687.36218655124,5287.1375913274105,25.768321513002366
110,51.51449962,-0.141423695,"Little Argyll Street, West End",25670.36109235484,26595.072625791854,725.7839968247638,13.380614657210403
111,51.49288067,-0.114934001,"Lollard Street, Vauxhall",27570.96473909814,24237.121413501533,3741.906001132583,6.241134751773051
112,51.49582705,-0.13547809,"Rochester Row, Westminster",26135.97160613556,24528.347145162435,2727.306483421617,4.278959810874705
113,51.52589324,-0.090847761,"Bath Street, St. Luke's",29147.76518357103,27952.930230393336,4137.659113968627,23.617021276595747
114,51.51573534,-0.093080779,"The Guildhall, Guildhall",29022.26300050833,26818.87966280148,3920.61380871252,16.761229314420806
115,51.51891348,-0.156166631,"Baker Street, Marylebone",24634.675376544867,27060.203892951336,474.1098224835706,22.364066193853425
116,51.52111369,-0.078869751,"Norton Folgate, Liverpool Street",29992.91043959814,27442.991913207843,4899.55736011209,26.666666666666668
117,51.52836014,-0.104724625,"St. John Street, Finsbury",28177.70457522478,28202.3215469734,3276.4663863483797,22.600472813238774
118,51.49654462,-0.150905245,"Eaton Square, Belgravia",25062.713473174386,24580.99593396523,2474.244688248639,11.985815602836878
119,51.50069491,-0.094524319,"Borough High Street, The Borough",28965.63834912269,25143.1091494358,4304.667388881396,10.472813238770685
120,51.51700801,-0.09388536,"Wood Street, Guildhall",28962.730392724512,26959.00183941939,3855.166598036732,18.085106382978726
121,51.49536226,-0.185296516,"Emperor's Gate, South Kensington",22677.920044061942,24389.6923533183,3607.1900741750533,30.37825059101655
122,51.5118973,-0.137043852,"Golden Square, Soho",25981.737624717407,26313.308881008736,1145.3936709172801,9.645390070921987
123,51.50950627,-0.07545948200000001,"Tower Gardens , Tower",30263.545738822115,26157.95600825272,5232.229291309981,23.238770685579198
124,51.53300545,-0.136792671,"Eversholt Street , Camden Town",25939.372956013078,28661.929520329722,1809.075173152084,24.326241134751776
125,51.52364804,-0.074754872,"Bethnal Green Road, Shoreditch",30271.062434497755,27732.430160401767,5206.590906922891,30.04728132387707
126,51.50136494,-0.191462381,"Derry Street, Kensington",22233.262655228653,25046.865138279947,3507.1790728065944,29.810874704491727
127,51.52326004,-0.104708922,"Clerkenwell Green, Clerkenwell",28193.492581272436,27634.991072155626,3138.824029143624,19.26713947990544
128,51.51196176,-0.097441687,"Queen Victoria Street, St. Paul's",28730.496463180465,26391.210837564868,3682.034946165719,11.962174940898345
129,51.49087475,-0.153319609,"Bourne Street, Belgravia",24910.979645088883,23946.01977735854,3115.077099529461,13.947990543735225
130,51.51227622,-0.15743697199999998,"Green Street, Mayfair",24565.1024012056,26319.619504103925,914.3664320866487,20.260047281323878
131,51.49488108,-0.117974901,"Lambeth Road, Vauxhall",27354.073526716293,24454.2212852418,3435.772189725146,4.184397163120567
132,51.52096262,-0.085634242,"Finsbury Square , Moorgate",29523.89666654993,27413.880839271093,4429.718983225682,23.026004728132392
133,51.51530805,-0.147203711,"Chapel Place, Marylebone",25266.891190433424,26674.831819007377,411.5729609857045,16.78486997635934
134,51.49372451,-0.198286569,"West Cromwell Road, Earl's Court",21780.378005383754,24185.215507735527,4394.61893992108,37.56501182033097
135,51.4968865,-0.16120382800000002,"Pont Street, Knightsbridge",24346.647953321142,24601.011774932816,2569.424654438161,16.926713947990542
136,51.48894022,-0.111435796,"Kennington Cross, Kennington",27825.200677387682,23805.031864270077,4235.581654263915,8.014184397163122
137,51.50074359,-0.202759212,"Ilchester Place, Kensington",21450.61284064501,24958.4207362679,4216.26113184398,36.28841607565012
138,51.48836528,-0.129361842,"Vauxhall Bridge , Pimlico",26581.890039776525,23709.10417044352,3655.6655380256207,7.801418439716313
139,51.51494305,-0.11614642,"Portugal Street, Holborn",27423.59075821948,26689.27026531039,2343.520350477341,10.638297872340425
140,51.49211134,-0.138364847,"Tachbrook Street, Victoria",25946.03281056162,24109.891997078346,3061.631917416264,8.297872340425533
141,51.48478899,-0.110683213,"Kennington Road Post Office, Oval",27889.386239817657,23344.581047967866,4636.564241803682,10.8274231678487
142,51.49705603,-0.168917077,"Holy Trinity Brompton, Knightsbridge",23810.5891915798,24606.443384268176,2771.23496103275,21.158392434988183
143,51.51213691,-0.201554966,"Chepstow Villas, Notting Hill",21503.07742518351,26227.93206772764,3699.275366720055,37.70685579196217
144,51.49217002,-0.101536865,"Hampton Street, Walworth",28503.35067549554,24182.111907892948,4446.986618022901,8.416075650118204
145,51.51183419,-0.174292825,"Bayswater Road, Hyde Park",23396.299322318955,26241.11835617616,1895.9431878329885,26.028368794326244
146,51.50379168,-0.11282408,"Waterloo Station 3, Waterloo",27686.185231592608,25454.684511133444,3033.7365805130153,1.773049645390071
147,51.49586666,-0.191933711,"Lexham Gardens, Kensington",22215.648473430698,24434.398258235447,3903.412868881764,33.68794326241135
148,51.49443626,-0.092921165,"New Kent Road, Borough",29095.089040531984,24449.77140727066,4762.047916846801,11.938534278959812
149,51.50039792,-0.193068385,"Wright's Lane, Kensington",22124.412703625763,24936.53429348892,3659.699107283,31.06382978723404
150,51.49085368,-0.196170309,"Trebovir Road, Earl's Court",21935.206609723202,23869.468661133636,4496.423026255721,41.74940898345154
151,51.51461995,-0.137841333,"Great Marlborough Street, Soho",25918.673088587264,26614.780720042734,921.7351963429469,11.702127659574469
152,51.49234577,-0.14133448699999998,"Guildhouse Street, Victoria",25739.14596973645,24130.730043574327,2991.2622595683238,8.321513002364068
153,51.51760685,-0.121328408,"Southampton Place, Holborn",27056.30344649691,26976.35622539246,1949.128544794505,11.725768321513005
154,51.4931848,-0.167894973,"Sloane Avenue, Knightsbridge",23892.341113066916,24177.56451615252,3123.8143274986232,21.347517730496456
155,51.515607,-0.183118788,"Cleveland Gardens, Bayswater",22773.22680073067,26645.57788185638,2371.109985430704,31.48936170212766
156,51.517932,-0.183716959,"Orsett Terrace, Bayswater",22725.288036223134,26903.193114007845,2388.28409712984,32.529550827423165
157,51.50185512,-0.159237081,"Seville Street, Knightsbridge",24469.31126237252,25157.17853905426,2002.4737895500448,15.69739952718676
158,51.49395092,-0.147624377,"Eccleston Place, Victoria",25297.83175830104,24298.22128512981,2763.067815799196,11.583924349881796
159,51.50040123,-0.195455928,"Argyll Road, Kensington",21958.631310028723,24932.81240495809,3798.178453510824,32.08037825059102
160,51.51474612,-0.16516428800000002,"Porchester Place, Paddington",24021.829950680054,26580.906043065854,1185.7453877230291,23.309692671394803
161,51.52784273,-0.108068155,"Hardwick Street, Clerkenwell",27947.18936065052,28138.757111110343,3038.362842781817,21.773049645390078
162,51.4916156,-0.186753859,"Collingham Gardens, Earl's Court",22587.04796988808,23970.386222821107,3984.0541832876693,30.56737588652482
163,51.49121192,-0.17371591100000006,"Sumner Place, South Kensington",23493.594137462074,23947.989371477768,3501.58411503831,24.491725768321512
164,51.50486,-0.113001,"Waterloo Roundabout, Waterloo ",27670.83785207216,25573.212370326302,2959.629875305255,2.7895981087470454
165,51.512529,-0.11516300000000003,"Strand, Strand",27498.76700144946,26422.47818287576,2472.247134390015,7.2813238770685595
166,51.52174384,-0.0811189,"Appold Street, Liverpool Street",29834.981683036167,27508.996164307027,4748.0002172194045,25.082742316784874
167,51.51791921,-0.188098863,"Gloucester Terrace, Bayswater",22421.195293493158,26894.229938579752,2692.3523865634743,35.24822695035462
168,51.49616092,-0.140947636,"Ashley Place, Victoria",25755.23035083896,24555.827160224344,2581.251108024679,6.6430260047281315
169,51.48985626,-0.141923621,"Warwick Square, Pimlico",25705.264519832665,23852.74684268949,3257.153175823597,10.543735224586289
170,51.5129118,-0.153645496,"North Audley Street, Mayfair",24826.498995956645,26396.958566978134,715.8488778707215,19.338061465721037
171,51.49941247,-0.152317537,"Belgrave Square, Belgravia",24956.59297530714,24897.55276221925,2162.619128045097,13.711583924349881
172,51.52202903,-0.165842551,"Bell Street , Marylebone",23954.44187707321,27389.915726035517,1201.9700857814012,28.65248226950355
173,51.52071513,-0.14521173,"Portland Place, Marylebone",25389.904504790316,27279.845720994024,360.1185649649311,17.848699763593384
174,51.48805753,-0.140741432,"Alderney Street, Pimlico",25792.4475612352,23654.732783603973,3468.1372945168737,12.434988179669032
175,51.51733558,-0.175810943,"South Wharf Road, Paddington",23275.662306600483,26850.494779010278,1844.4437515594545,30.04728132387707
176,51.49247977,-0.17843300399999998,"Queen's Gate (South), South Kensington",23162.500888660055,24080.8685520617,3554.18685403566,27.09219858156029
177,51.5165179,-0.164393768,"Nutford Place, Marylebone",24070.367167811182,26779.34962853309,1074.3034825663926,25.29550827423168
178,51.53166681,-0.109914711,"Claremont Square, Angel",27808.066171831942,28560.853931745136,3091.0265176902026,24.609929078014186
179,51.48997562,-0.132845681,"Rampayne Street, Pimlico",26335.367990540297,23882.06786235413,3401.600695249729,8.534278959810877
180,51.50311799,-0.153520935,"Hyde Park Corner, Hyde Park",24862.636565506124,25307.66418383477,1764.3980004521802,13.427895981087472
181,51.51251523,-0.133201961,"Wardour Street, Soho",26246.665576244082,26388.84696556817,1318.4654869755855,9.078014184397164
182,51.50581776,-0.100186337,"Bankside Mix, Bankside",28557.724963625664,25702.77597546109,3704.5106257328052,8.297872340425533
183,51.50462759,-0.091773776,"Hop Exchange, The Borough",29145.203255041703,25585.57230269871,4295.530717960049,11.914893617021278
184,51.50724437,-0.106237501,"Milroy Walk, South Bank",28133.527145269796,25850.589483473013,3255.672234860211,5.200945626477543
185,51.50368837,-0.098497684,"Union Street, The Borough",28681.111657352245,25468.93858407045,3908.5458354303746,8.534278959810877
186,51.50556905,-0.111606696,"Stamford Street, South Bank",27765.601513776546,25654.58715584021,3003.242590798236,2.7895981087470454
187,51.51048489,-0.082989638,"Great Tower Street, Monument",29737.970508211176,26253.10049659669,4698.125387618931,18.274231678487
188,51.51492456,-0.066078037,"LMU Commercial Road, Whitechapel",30898.848861033937,26777.877123446877,5796.713317684534,28.72340425531915
189,51.52259650000001,-0.161113413,"Dorset Square, Marylebone",24281.05272187584,27461.282388461546,922.1216305056204,26.95035460992908
190,51.51236389,-0.06954201,"Leman Street, Aldgate",30665.93361006436,26486.669029567245,5586.145888957967,28.747044917257686
191,51.51821864,-0.100791005,"West Smithfield Rotunda, Farringdon",28479.94093732673,27081.213960759316,3371.289779148544,15.224586288416074
192,51.52659961,-0.112432615,"Margery Street, Clerkenwell",27647.908917593173,27992.64345481628,2706.8122180301802,20.756501182033098
193,51.518144,-0.06275,"New Road  2, Whitechapel",31120.361707152217,27142.130766259594,6012.241283966946,30.6855791962175
194,51.518154,-0.062697,"New Road 1 , Whitechapel",31124.010664307192,27143.340602868502,6015.9075384812,30.6855791962175
195,51.50135267,-0.153194766,"Grosvenor Crescent, Belgravia",24890.2374914091,25111.852725884386,1955.2087563942691,12.624113475177307
196,51.52505151,-0.166304359,"Mallory Street, Marylebone",23913.965607038732,27725.349567996655,1370.0879298924099,29.834515366430264
197,51.49358391,-0.165101392,"Denyer Street, Knightsbridge",24085.22244980572,24226.823072419942,3007.5140127509612,20.709219858156033
198,51.51681444,-0.151926305,"Hinde Street, Marylebone",24934.867520261632,26834.120718239894,280.96518106593004,19.148936170212767
199,51.49464523,-0.158105512,"Cadogan Place, Knightsbridge",24568.06099074187,24357.091644406988,2751.3716210727252,17.23404255319149
200,51.50658458,-0.19900402600000006,"Campden Hill Road, Notting Hill",21695.35106202007,25614.614435797997,3704.7932401667076,35.34278959810875
201,51.50274025,-0.14956920099999998,"Wellington Arch, Hyde Park",25138.05877808138,25272.572347955807,1782.4807672829306,10.99290780141844
202,51.52683806,-0.130504336,"Endsleigh Gardens, Euston",26393.203823922784,27986.96925259536,1587.0496850317154,19.43262411347518
203,51.51906932,-0.088285377,"Moorfields, Moorgate",29345.411337521426,27198.451145458817,4239.091053362075,20.378250591016553
204,51.49094565,-0.181190899,"Old Brompton Road, South Kensington",22975.22214225908,23905.44249415575,3804.0097448623583,27.895981087470457
205,51.51615461,-0.08242239900000001,"Wormwood Street, Liverpool Street",29760.816520013996,26884.855040609225,4655.165529141812,20.16548463356974
206,51.48971651,-0.17019440800000002,"St. Luke's Church, Chelsea",23742.30698143061,23787.74027256106,3541.318683098149,22.52955082742317
207,51.49016361,-0.19039362,"Bramham Gardens, Earl's Court",22338.27638297,23802.60387005619,4272.283738990748,32.6241134751773
208,51.49066456,-0.166485083,"Chelsea Green, Chelsea",23997.271075051744,23899.65227010267,3345.2099751992473,20.921985815602838
209,51.49481649,-0.13045856,"Horseferry Road, Westminster",26487.392321581137,24424.81925447579,2969.428414626726,4.278959810874705
210,51.50275704,-0.155349725,"Knightsbridge, Hyde Park",24736.680004732832,25264.308348305898,1828.7546474189014,15.815602836879439
211,51.49148474,-0.090220911,"Rodney Road , Walworth",29291.16292795076,24126.322187607613,5105.741255384369,14.349881796690312
212,51.51476963,-0.188129731,"Whiteley's, Bayswater",22427.729059000238,26543.7998369064,2729.291351891114,33.427895981087474
213,51.50935342,-0.196422,"Notting Hill Gate Station, Notting Hill",21867.011007538502,25927.050341596274,3432.3094234429677,35.29550827423168
214,51.50844614,-0.131961389,"Charles II Street, West End",26344.33351660073,25938.379694070052,1665.255830962998,5.673758865248228
215,51.52891573,-0.115480888,"Great Percy Street, Clerkenwell",27429.747072549213,28244.846582330967,2608.292185947917,24.278959810874706
216,51.50742485,-0.134621209,"St. James's Square, St. James's",26162.58652461413,25820.056375886812,1623.3249322786576,6.0992907801418434
217,51.50654321,-0.123179697,"Whitehall Place, Strand",26959.382269404214,25742.28788012158,2268.8197644942984,1.2056737588652486
218,51.50669284,-0.103137426,"Poured Lines, Bankside",28350.327786800943,25794.808940249528,3477.844931394387,6.832151300236407
219,51.49396755,-0.17873226,"Queen's Gate (Central), South Kensington",23137.601000017457,24245.859666164237,3431.5682576903773,26.430260047281326
220,51.51501025,-0.112753217,"Carey Street, Holborn",27658.91798189859,26702.815150036913,2574.3417630266545,11.27659574468085
221,51.50777049,-0.130699733,"Pall Mall East, West End",26433.836925380343,25865.45377999216,1780.566431335629,4.491725768321514
222,51.53450449,-0.106992706,"Liverpool Road (N1 Centre), Angel",28002.637049898185,28881.773384564003,3422.3300673829035,26.595744680851066
223,51.49571828,-0.110889274,"Kennington Road  , Vauxhall",27843.69464744229,24560.030787176656,3701.86868580488,3.4751773049645394
224,51.51838043,-0.073438925,"Fashion Street, Whitechapel",30377.81427371179,27148.84369955337,5269.898708055717,26.80851063829787
225,51.5084448,-0.067176443,"Vaughan Way, Wapping",30841.650424001273,26055.02924902752,5819.42103592905,28.179669030732864
226,51.5233534,-0.175116099,"Frampton Street, Paddington",23307.191433982338,27521.152929179458,1860.941505559462,33.78250591016548
227,51.52443845,-0.138019439,"Warren Street Station, Euston",25878.514017869547,27706.725095002184,1008.7219908981211,18.156028368794328
228,51.50545935,-0.10569204,"Colombo Street, Southwark",28176.53390986109,25652.996262458124,3372.8857418308557,6.713947990543736
229,51.52200801,-0.151359288,"Beaumont Street, Marylebone",24959.624504406816,27412.874518474127,387.87675885282687,22.127659574468087
230,51.49096258,-0.139625122,"Gloucester Street, Pimlico",25861.7620176174,23979.87348031972,3165.7966594816485,8.84160756501182
231,51.51611887,-0.128585022,"Earnshaw Street , Covent Garden",26556.889001047184,26797.9192651195,1470.7438269001623,11.394799054373522
232,51.4853572,-0.142207481,"Grosvenor Road, Pimlico",25698.253815963937,23351.750737470666,3749.6898151658665,13.167848699763594
233,51.52285301,-0.099994052,"Berry Street, Clerkenwell",28521.86444211108,27598.19803846392,3456.0942338446116,19.21985815602837
234,51.50645179,-0.170279555,"Triangle Car Park, Hyde Park",23689.850409510123,25649.310033023266,1997.179340745734,22.836879432624112
235,51.49859784,-0.096191134,"Harper Road, Borough",28855.978619310536,24906.810683153482,4319.212761938912,8.794326241134751
236,51.489932,-0.162727,"Royal Avenue 1, Chelsea",24260.303174573783,23824.703028913267,3339.6818831917108,18.88888888888889
237,51.518908,-0.079249,"Brushfield Street, Liverpool Street",29973.03235917253,27196.93074743802,4866.353498794751,26.312056737588655
238,51.5046364,-0.116542278,"Jubilee Gardens, South Bank",27425.625896785612,25542.004578270866,2767.034483153605,0.5200945626477542
239,51.53404294,-0.086379717,"Shoreditch Park, Hoxton",29434.097856172386,28867.63954790644,4689.876089462945,31.536643026004732
240,51.53051587,-0.106408455,"Chadwell Street, Angel",28054.65800348687,28439.109454099467,3254.9387178817187,23.475177304964543
241,51.52557531,-0.179592915,"Clifton Road, Maida Vale",22990.36303309661,27760.591111876915,2232.8695501522925,37.56501182033097
242,51.51362054,-0.116764211,"Houghton Street, Strand",27384.49685233888,26541.044332168443,2333.015325469506,8.652482269503547
243,51.52248185,-0.154907218,"Westminster University, Marylebone",24712.072525720054,27459.371585530553,566.5905966466512,23.120567375886527
244,51.50143293,-0.17865697100000005,"Kensington Gore, Knightsbridge",23122.162105157204,25076.477385764618,2803.633036689573,23.56973995271868
245,51.48677988,-0.115853961,"Kennington Lane Tesco, Vauxhall",27524.55012986109,23556.799129557417,4251.136775415589,10.638297872340425
246,51.51816295,-0.135025698,"Rathbone Street, Fitzrovia ",26104.060317787807,27013.898846200987,996.1463217549423,14.562647754137119
247,51.50990837,-0.187842717,"Black Lion Gate, Kensington Gardens",22461.04350011233,26003.4995390673,2848.794850035657,29.88179669030733
248,51.49907558,-0.08566631599999999,"Long Lane , Bermondsey",29585.368740115693,24979.0189981664,4934.469796900358,14.633569739952721
249,51.50963123,-0.119047563,"Embankment (Savoy), Strand",27237.41401719043,26093.17851184632,2335.793344711269,4.586288416075652
250,51.529423,-0.097122,"Macclesfield Rd, St Lukes",28702.166248886788,28334.253497503614,3814.390868729977,24.822695035460995
251,51.48696500000001,-0.116625,"Vauxhall Street, Vauxhall",27470.46990488439,23576.01452322674,4204.727440678125,9.83451536643026
252,51.49459148,-0.134234258,"Greycoat Street , Westminster",26225.84546092003,24393.097774901515,2886.6270785962824,5.177304964539008
253,51.506767,-0.123702,"Northumberland Avenue, Strand",26922.484517847664,25766.253479714596,2224.859556932746,1.6548463356973995
254,51.486575,-0.117286,"Oval Way, Lambeth",27425.67807868043,23531.4483181476,4216.89789291085,10.945626477541373
255,51.494412,-0.173881,"South Kensington Station, South Kensington",23473.2476632856,24303.69635917645,3200.550140671276,24.042553191489368
256,51.520994,-0.139016,"Howland Street, Fitzrovia",25819.104184251235,27321.78743781269,758.862560395191,16.666666666666668
257,51.51643491,-0.124332175,"High Holborn , Covent Garden",26851.16796454444,26840.635364851358,1755.527346481976,12.340425531914894
258,51.49782999,-0.135440826,"Butler Place, Westminster",26132.882683536664,24751.229263903657,2520.978554242128,4.160756501182034
259,51.49675303,-0.138733562,"Howick Place, Westminster",25907.29644066368,24625.603644656803,2557.0927730073267,4.91725768321513
260,51.50391972,-0.11342628,"Waterloo Station 2, Waterloo",27644.009511858883,25467.850262703345,2990.9807775504323,1.418439716312057
261,51.536264,-0.133952,"Royal College Street, Camden Town",26127.21732362581,29029.451375213535,2221.8159801776137,27.801418439716315
262,51.5291212008901,-0.171185284853,"Lord's, St. John's Wood",23563.938980355353,28169.606666097094,1905.05164770285,35.22458628841607
263,51.519656,-0.132339,"Alfred Place, Bloomsbury",26286.289830300942,27184.749446350528,1184.682675993088,14.137115839243501
264,51.530344,-0.100168,"City Road, Angel",28488.152056458373,28431.216523241743,3648.947298669828,25.130023640661936
265,51.5109192966489,-0.1511263847351,"Millennium Hotel, Mayfair",25006.95808706651,26179.7176153982,880.9955039508286,16.122931442080382
266,51.5173721,-0.1642075,"Harrowby Street, Marylebone",24080.9113724426,26874.69973198252,1043.5047124075036,25.721040189125297
267,51.50024195,-0.15934065,"Harriet Street, Knightsbridge",24466.633986087778,24977.54061574305,2174.2529999197986,17.23404255319149
268,51.520205,-0.174593,"Paddington Green, Paddington",23352.231401624027,27171.813039768986,1760.4154991893706,31.252955082742314
269,51.49775,-0.10988,"King Edward Walk, Waterloo",27907.94016687022,24787.857271077202,3602.0167814659967,3.4042553191489366
270,51.515208,-0.117863,"Sardinia Street, Holborn",27303.685838795704,26715.678332600888,2220.976180782105,10.969267139479904
271,51.50194596,-0.194392952,"Kensington Town Hall, Kensington",22028.196389610614,25106.476936938154,3644.975840817918,32.860520094562645
272,51.49188409,-0.125674815,"Millbank House, Pimlico",26827.92978629796,24107.102251542183,3412.4122788618897,5.224586288416076
273,51.50535447,-0.113656543,"Waterloo Bridge, South Bank",27623.909075917603,25627.046059872635,2892.147737281539,3.4751773049645394
274,51.49559291,-0.17907762600000002,"Natural History Museum, South Kensington",23109.11974447929,24426.07636463395,3302.845968781491,27.801418439716315
275,51.51431171,-0.200838199,"Turquoise Island, Notting Hill",21546.882726479656,26471.092417802574,3609.384936745893,38.53427895981088
276,51.50686435,-0.150666888,"Stanhope Gate, Mayfair",25050.25448850112,25729.431120711,1326.6715131959638,14.988179669030734
277,51.51953043,-0.13577731,"Charlotte Street, Fitzrovia",26048.018913017848,27164.694700775868,945.6699858476629,15.46099290780142
278,51.50935171,-0.14744969,"Farm Street, Mayfair",25266.59360478881,26011.786452834698,1054.9009019610257,14.160756501182034
279,51.51310333,-0.13121385,"Frith Street, Soho",26382.99586625163,26457.792618096835,1407.168560213087,9.408983451536644
280,51.496481,-0.192404,"Marloes Road, Kensington",22181.304195509176,24501.93411123092,3884.21834347336,34.0661938534279
281,51.51352755,-0.130110822,"Moor Street, Soho",26458.3535888014,26506.940864267148,1456.5646602730108,8.250591016548464
282,51.49369988,-0.121394101,"Fire Brigade Pier, Vauxhall",27120.017285474503,24316.71974063819,3397.40021687171,4.444444444444445
283,51.51070161,-0.121723604,"Southampton Street, Strand",27048.593529025078,26207.48088150422,2116.8244358709385,5.200945626477543
284,51.51013066,-0.155757901,"Upper Grosvenor Street, Mayfair",24687.668683773434,26083.87263083309,1058.3179941616575,18.108747044917266
285,51.521776,-0.068856,"Buxton Street 1, Shoreditch",30685.916010346846,27534.965857760893,5597.792206003161,30.425531914893618
286,51.51066202,-0.142345694,"Clifford Street, Mayfair",25617.20303549209,26166.5339231634,1023.5029055957202,11.962174940898345
287,51.49942855,-0.17970247600000006,"Imperial College, Knightsbridge",23055.118131577736,24851.693616269185,3011.835663556034,25.579196217494093
288,51.51733427,-0.103604248,"Snow Hill, Farringdon",28287.23981175083,26977.768203045038,3179.4188777468976,14.633569739952721
289,51.524826,-0.176268,"Aberdeen Place, St. John's Wood",23223.16924315691,27682.97995294191,1987.4673881198926,35.15366430260048
290,51.492462,-0.159919,"Cadogan Gardens, Sloane Square",24448.23714634859,24111.051016731974,3016.9542963698705,17.446808510638302
291,51.51809,-0.163609,"Shouldham Street, Marylebone",24120.446504054504,26955.605144175497,993.2747947069873,25.91016548463357
292,51.51348,-0.17977,"Devonshire Terrace, Bayswater",23011.54878183501,26414.73557246258,2192.708394516677,29.645390070921984
293,51.502319,-0.200742,"Holland Park, Kensington",21586.362658572703,25137.119453716063,4010.584757835859,34.84633569739953
294,51.52261762,-0.071653961,"Brick Lane Market, Shoreditch",30489.27380807197,27623.469451131095,5410.485989343338,29.645390070921984
295,51.517703,-0.154106,"George Street, Marylebone",24781.088007771265,26929.14986520717,350.9364372894826,20.354609929078013
296,51.528187,-0.075375,"Columbia Road, Weavers",30214.744402087177,28236.23082966517,5240.88565114133,32.36406619385343
297,51.52289229,-0.171681991,"Penfold Street, Marylebone",23546.790400965318,27475.806393195962,1617.7045682260596,31.796690307328607
298,51.51689296,-0.158249929,"George Place Mews, Marylebone",24495.744689186427,26831.789002272446,652.3192711824479,22.860520094562656
299,51.50204238,-0.184400221,"Palace Gate, Kensington Gardens",22721.723439130874,25134.36774052188,3063.6619366277423,26.78486997635934
300,51.49418566,-0.18267094,"Gloucester Road Station, South Kensington",22863.489356825132,24263.324938447884,3582.4037971033667,28.557919621749406
301,51.512303,-0.15998800000000002,"Speakers' Corner 2, Hyde Park",24387.95092399478,26318.142821918853,1030.6501101963222,20.378250591016553
302,51.51222,-0.16078499999999998,"Speakers' Corner 1, Hyde Park",24332.86022066548,26307.518634050877,1077.2463474376414,20.023640661938536
303,51.51994326,-0.17070433699999998,"Paddington Green Police Station, Paddington",23622.839870601645,27149.43603810729,1488.9244687375995,28.39243498817967
304,51.493146,-0.099828,"Strata, Southwark",28619.20218024412,24293.763268303734,4466.16546087639,10.99290780141844
305,51.519968,-0.169774,"Edgware Road Station, Paddington",23687.338501444145,27153.802974151768,1424.8588442278406,29.338061465721044
306,51.49337264,-0.09968067,"Walworth Road, Southwark",28628.778518596344,24319.241230920044,4458.017207430911,11.158392434988182
307,51.488105,-0.110121,"Cleaver Street, Kennington",27918.910730634845,23714.47537631521,4365.18361771539,12.411347517730498
308,51.485821,-0.149004,"Chelsea Bridge, Pimlico",25224.899447804823,23391.387505790655,3665.2653719996338,17.139479905437355
309,51.504043,-0.105312,"Southwark Station 1, Southwark",28206.99708303326,25496.11847239805,3468.231976020283,5.555555555555556
310,51.504044,-0.104778,"Southwark Station 2, Southwark",28244.067607055826,25497.18970588208,3500.9107258158283,6.359338061465722
311,51.49456127,-0.15393398,"Eaton Square (South), Belgravia",24857.970240462866,24355.049553660472,2711.3854757794556,13.498817966903076
312,51.490491,-0.149186,"Ebury Bridge, Pimlico",25199.122907468307,23910.580238305814,3145.5303482196764,11.77304964539007
313,51.533379,-0.139159,"Harrington Square 2, Camden Town",25774.13500861058,28699.30609007328,1774.0043036078678,26.24113475177305
314,51.493072,-0.129925,"Vincent Street, Pimlico",26529.40123392105,24231.700969948346,3160.4104378445963,5.791962174940898
315,51.51397065,-0.09294031,"Cheapside, Bank",29037.129279566463,26622.82212439793,3952.055608243417,14.822695035460992
316,51.499917,-0.174554,"Exhibition Road, South Kensington",23411.23956521647,24914.934991623304,2731.415681752922,23.096926713947994
317,51.48902,-0.17524,"South Parade, Chelsea",23393.8311234852,23701.50946465324,3766.3777915014753,24.657210401891255
318,51.534474,-0.122203,"Crinan Street, King's Cross",26947.440004246906,28851.182061457628,2570.546412051924,26.453900709219855
319,51.496957,-0.173894,"Exhibition Road Museums, Knightsbridge",23465.28113738832,24586.792590838653,2965.151884265345,26.64302600472814
320,51.524564,-0.116279,"Wren Street, Holborn",27386.832753593364,27759.312922674086,2384.5254435849865,18.628841607565015
321,51.488852,-0.105593,"Kennington Station, Kennington",28231.23014000381,23805.703731965943,4506.280041391161,11.182033096926713
322,51.51824000000001,-0.11655,"Red Lion Street, Holborn",27386.137387217823,27055.317136618687,2277.382902797452,13.947990543735225
323,51.488124,-0.120903,"Vauxhall Walk, Vauxhall",27170.044598079494,23697.310517127768,3939.763236554981,8.959810874704491
324,51.5338,-0.118677,"Killick Street, Kings Cross",27194.001181174885,28782.48869770524,2707.973334098875,27.423167848699762
325,51.483145,-0.113134,"Kennington Oval, Oval",27723.88046450379,23157.306398804736,4693.552513217723,12.434988179669032
326,51.495656,-0.114605,"Sail Street, Vauxhall",27585.85838201753,24546.449332788725,3525.3266226349065,3.9007092198581566
327,51.510101,-0.211358,"Walmer Road, Notting Hill",20828.1413989445,25984.766893780703,4412.32884749476,42.15130023640663
328,51.515256,-0.058641,"Philpot Street, Whitechapel",31414.06722212789,26828.4176844148,6309.375761387915,32.6241134751773
329,51.52568,-0.055312,"Bethnal Green Gardens, Bethnal Green",31614.30480976016,27994.15913194886,6573.017338763388,37.115839243498826
330,51.52388,-0.065076,"Cheshire Street, Bethnal Green",30942.052168418944,27775.9542828915,5877.704237005299,32.88416075650119
331,51.528936,-0.055894000000000006,"York Hall, Bethnal Green",31564.292640400323,28355.29597091416,6585.228178076419,38.628841607565015
332,51.493381,-0.007542,"Jubilee Crescent, Cubitt Town",35027.01066875129,24490.32466252477,10244.432685114274,59.66903073286053
333,51.50623,-0.02296,"Fishermans Walk West, Canary Wharf",33917.751091878454,25890.651650313084,8885.588898146547,49.148936170212764
334,51.511088,-0.057159,"Shadwell Station, Shadwell",31529.24185407397,26367.48420071861,6457.1725349239405,30.756501182033098
335,51.515975,-0.053177,"Jubilee Street, Stepney",31791.186228181963,26918.47863770803,6683.822267725195,36.35933806146572
336,51.504719,-0.06353099999999999,"Hermitage Court, Wapping",31105.680823623843,25647.2481206416,6159.8994739485415,31.276595744680854
337,51.505697,-0.070542,"St Katharines Way, Tower",30616.077221422198,25743.187767136118,5661.3568875256005,27.54137115839244
338,51.508447,-0.055167,"Garnet Street, Shadwell",31675.32452954457,26077.3630842866,6638.919206285246,35.88652482269504
339,51.487679,-0.021582,"Napier Avenue, Millwall",34069.20144424152,23829.56995589988,9523.224052455604,59.14893617021278
340,51.49447,-0.014409,"East Ferry Road, Cubitt Town",34546.8713360806,24598.508724888467,9752.511240171456,57.09219858156029
341,51.538071,-0.144664,"Parkway, Camden Town",25378.950643475797,29211.567743161137,2173.614578965287,30.118203309692674
342,51.542138,-0.145393,"Castlehaven Road, Camden Town",25316.905076341107,29662.720459219214,2616.201836720516,34.51536643026005
343,51.504749,-0.05754400000000001,"Wapping Lane, Wapping",31521.236230980365,25661.601315796517,6562.084885512148,34.657210401891255
344,51.535179,-0.03338,"Gun Makers Lane, Old Ford",33107.809955059405,29091.54694034395,8254.282274315696,49.00709219858156
345,51.516196,-0.029138,"Burdett Road, Mile End",33459.00168854659,26987.732570274355,8350.51657768031,45.98108747044917
346,51.51600000000001,-0.038775,"Aston Street, Stepney",32790.7136342313,26947.955587061966,7682.702249765556,41.60756501182034
347,51.541603,-0.138853,"Bonny Street, Camden Town",25772.087718662402,29614.727656805277,2644.4617541691023,32.71867612293144
348,51.534776,-0.071881,"Thurtle Road, Haggerston",30437.869022559786,28975.603356079813,5664.706503226001,36.832151300236404
349,51.51417,-0.052099,"St. Mary and St. Michael Church, Stepney",31871.35285784572,26719.67520184684,6770.8974901034135,34.657210401891255
350,51.53558,-0.08249,"Pitfield Street (North),Hoxton",29699.484233804887,29045.696003329682,5003.840262484726,32.97872340425533
351,51.534464,-0.07634099999999999,"Whiston Road, Haggerston",30129.352245754184,28932.748290954947,5360.321372878777,34.822695035460995
352,51.523538,-0.030556,"Southern Grove, Bow",33338.597060610664,27801.831685560726,8263.676300256257,44.657210401891255
353,51.521564,-0.022694,"Cantrell Road, Bow",33890.119361142126,27596.9539774454,8798.084212176009,49.10165484633569
354,51.513757,-0.020467,"Lindfield Street, Poplar",34068.167192863155,26732.65739866751,8965.202663832433,50.40189125295508
355,51.530535,-0.025492,"Mostyn Grove, Bow",33669.006958099984,28589.674714041317,8696.765165429091,52.22222222222223
356,51.533283,-0.028155,"Hewison Street, Old Ford",33475.994706941216,28890.388095105038,8566.215431128001,52.19858156028369
357,51.529452,-0.027616,"Malmesbury Road, Bow",33524.88197907372,28465.222164252973,8533.490334331223,49.787234042553195
358,51.496137,-0.019355,"Millharbour, Millwall",34198.404493672104,24774.644353230804,9371.2806891973,54.89361702127661
359,51.498125,-0.011457,"Castalia Square, Cubitt Town",34740.80931020071,25010.666388427228,9846.573579327447,57.09219858156029
360,51.499041,-0.020157,"Lightermans Road, Millwall",34133.976573549764,25096.18692429355,9235.304314489866,52.22222222222223
361,51.489096,-0.009205,"Stebondale Street, Cubitt Town",34924.495601879025,24010.50751794214,10276.991956841726,60.0
362,51.49109,-0.018716,"Spindrift Avenue, Millwall",34257.973576149314,24214.402891202863,9579.98612195522,58.4160756501182
363,51.521889,-0.04667,"Stepney Green Station, Stepney",32225.254330301366,27588.41074696192,7136.4764871721045,37.28132387706856
364,51.527152,-0.058005,"Pott Street, Bethnal Green",31423.083909652953,28152.9461128861,6409.107070325405,36.477541371158395
365,51.5128711,-0.0389866,"Flamborough Street, Limehouse",32785.355897670226,26599.492262405838,7690.092630048026,39.90543735224587
366,51.487129,-0.009001,"Saunders Ness Road, Cubitt Town",34944.615054684466,23792.078744326864,10362.894468439834,57.73049645390071
367,51.509843,-0.02377,"Thornfield House, Poplar",33850.6646598691,26291.054134521542,8775.210478619461,47.281323877068566
368,51.51328,-0.047784,"Albert Gardens, Stepney",32173.498363757306,26628.65066694378,7077.585672790105,36.312056737588655
369,51.528828,-0.013258,"Bromley High Street, Bromley",34523.01745728051,28422.765738759394,9513.1300374059,55.48463356973995
370,51.525645,-0.069543,"Granby Street, Shoreditch",30626.882161987596,27964.110943117616,5592.54473591985,32.009456264775416
371,51.511811,-0.025626,"Canton Street, Poplar",33715.92074447757,26506.50278084216,8624.613226194684,47.872340425531924
372,51.506946,-0.058681,"Reardon Street, Wapping",31435.817001764048,25903.908870424464,6430.886245381075,33.87706855791962
373,51.513074,-0.06409400000000001,"Christian Street, Whitechapel",31042.005483756104,26575.655442529907,5952.567342795258,29.290780141843967
374,51.508622,-0.065006,"Pennington Street, Wapping",30991.798714360863,26078.723626480234,5963.468595332621,34.160756501182036
375,51.522507,-0.041378,"Queen Marys, Mile End",32590.66881138601,27666.97801441091,7506.916019456735,39.621749408983455
376,51.524677,-0.03562,"The Green Bridge, Mile End",32983.77584681916,27919.090009048785,7922.3062728063,42.52955082742317
377,51.50196,-0.016250999999999998,"South Quay East, Canary Wharf",34396.37832849444,25428.249116611758,9428.97996316236,53.94799054373522
378,51.528169,-0.018703,"Bow Church Station, Bow",34147.188990860384,28339.209415483838,9129.237289134615,53.52245862884161
379,51.52512,-0.015578,"Devons Road, Bow",34373.22827804853,28005.906060773617,9313.165580896208,54.37352245862885
380,51.526535,-0.028619,"Coborn Street, Mile End",33464.03201228965,28138.848789098993,8425.30693352502,47.77777777777778
381,51.527058,-0.025296000000000003,"Bow Road Station, Bow",33693.04755187116,28203.24816126373,8660.773154123488,49.148936170212764
382,51.519265,-0.021345,"Furze Green, Bow",33990.65458232307,27343.736727802003,8886.598096477892,49.030732860520104
383,51.519806,-0.055731,"Sidney Street, Stepney",31602.59506089072,27339.93992636251,6500.097115954862,36.38297872340426
384,51.522561,-0.054883,"Cephas Street, Bethnal Green",31653.299297404825,27647.98094817813,6571.370878386828,35.24822695035462
385,51.502635,-0.022702,"South Quay West, Canary Wharf",33946.46791809842,25491.21682236149,8974.965643477102,49.787234042553195
386,51.520893,-0.051394,"Cleveland Way, Bethnal Green",31900.368319032972,27468.869564116318,6804.2237768683835,35.20094562647754
387,51.496454,-0.009506,"St John's Park, Cubitt Town",34881.33080276719,24828.46245453789,10022.967627626402,58.13238770685581
388,51.520398,-0.026768,"Ackroyd Drive, Bow",33610.888445158,27459.61072403417,8511.764961899471,47.47044917257684
389,51.517475,-0.07585499999999999,"Bell Lane, Liverpool Street",30212.778450090264,27043.707323140727,5104.035990214201,23.85342789598109
390,51.528692,-0.059091,"Clarkson Street, Bethnal Green",31343.180806401564,28322.261963369703,6361.957224651685,38.08510638297873
391,51.519362,-0.074431,"Fournier Street, Whitechapel",30306.086735733086,27256.224964158173,5201.233415625319,26.24113475177305
392,51.517842,-0.090075,"Fore Street, Guildhall",29224.77046571291,27058.674987803588,4116.0177378733615,19.929078014184398
393,51.509303,-0.025996,"Westferry DLR, Limehouse",33697.76455900943,26226.811881895675,8628.828289705742,45.62647754137116
394,51.511066,-0.053558,"Sutton Street, Shadwell",31779.269230793056,26371.67992750471,6705.403489610019,32.4113475177305
395,51.532091,-0.06142,"Pritchard's Road, Bethnal Green",31171.55592492208,28696.095464451617,6281.032664280535,39.527186761229316
396,51.51422279999999,-0.055656,"Watney Market, Stepney",31624.305470107734,26718.982116528237,6524.200010226306,33.14420803782506
397,51.516204,-0.155525,"Portman Square, Marylebone",24686.805262337217,26759.90963592948,514.7899814563563,20.756501182033098
398,51.500088,-0.211316,"Russell Gardens, Holland Park",20858.28240328348,24870.93429825173,4778.685608841662,40.66193853427897
399,51.5112,-0.014438,"Chrisp Street Market, Poplar",34494.360661044666,26459.547797563224,9404.463938997653,52.38770685579196
400,51.532513,-0.033085,"Ford Road, Old Ford",33136.251181110565,28795.52153205094,8214.059364259041,47.80141843971632
401,51.528224,-0.037471,"Antill Road, Mile End",32844.74253537858,28310.223831943502,7837.191370886569,46.21749408983452
402,51.518811,-0.011662,"Teviot Street, Poplar",34664.04555644051,27311.45134699685,9558.736843583782,57.82505910165485
403,51.526041,-0.047218,"Bancroft Road, Bethnal Green",32174.89530798377,28049.279552569176,7135.776806404794,39.43262411347517
404,51.534137,-0.037366,"Driffield Road, Old Ford",32834.38002721037,28968.20342091957,7959.042346002794,47.5177304964539
405,51.525941,-0.036017,"Clinton Road, Mile End",32952.45160253672,28058.962259014224,7907.711483828885,45.55555555555556
406,51.51549,-0.013475,"Langdon Park, Poplar",34548.24956630112,26938.594903758174,9440.210421797143,56.122931442080386
407,51.511654,-0.179668,"Lancaster Gate , Bayswater",23023.682153226142,26211.777488768068,2249.051891600933,28.794326241134755
408,51.504714,-0.014293,"Churchill Place, Canary Wharf",34524.005539108104,25738.29894478267,9506.847982490854,52.12765957446809
409,51.503143,-0.008428,"Lancaster Drive, Blackwall",34935.933360369316,25574.60164794014,9938.031338534467,57.470449172576835
410,51.503802,-0.215808,"Hansard Mews, Shepherds Bush",20536.31760256218,25276.488098425063,4906.079516042736,43.333333333333336
411,51.507326,-0.14582699999999998,"Clarges Street, West End",25384.94768362041,25789.28949938421,1295.3109274364185,13.97163120567376
412,51.486892,-0.170983,"Manresa Road, Chelsea",23695.391949118,23472.15909775961,3851.36302889484,23.096926713947994
413,51.508896,-0.012413,"Newby Place, Poplar",34641.88632552703,26207.060240842082,9570.75154019648,51.25295508274232
414,51.530326,-0.042744,"Twig Folly Bridge, Mile End",32472.600729435653,28534.255685121836,7510.9908583408605,43.3096926713948
415,51.50357,-0.020068,"Jubilee Plaza, Canary Wharf",34126.52506741474,25600.1734636389,9134.339558938973,53.1678486997636
416,51.528222,-0.069743,"Wellington Row, Bethnal Green",30605.439557523525,28250.420866597236,5625.213437979879,34.491725768321515
417,51.531864,-0.066035,"Goldsmiths Row, Haggerston",30852.021886119765,28662.36742804488,5964.004825964716,37.5886524822695
418,51.537349,-0.147154,"Gloucester Avenue, Camden Town",25208.242764225342,29126.869960661075,2074.4447940900554,29.47990543735225
419,51.53385,-0.06992000000000001,"Queensbridge Road, Haggerston",30576.63887737557,28876.17919240476,5763.257480384423,37.5886524822695
420,51.51793,-0.067937,"Old Montague Street, Whitechapel",30760.99158758428,27108.805335355195,5652.494926540731,27.352245862884164
421,51.508981,-0.0069900000000000006,"Naval Row, Blackwall",35018.08037319762,26226.755368342303,9943.863263525702,53.49881796690308
422,51.531091,-0.075901,"Hoxton Station, Haggerston",30169.748858941424,28558.324081205614,5279.603339368305,33.61702127659575
423,51.528302,-0.144466,"Albany Street, Regent's Park",25420.252849878092,28125.160650701582,1114.754218828179,23.309692671394803
424,51.506613,-0.142844,"Green Park Station, West End",25594.044106117843,25715.223178003187,1424.7823530027274,11.25295508274232
425,51.514115,-0.033828,"Salmon Lane, Limehouse",33139.70518996037,26747.47707372086,8036.829177323698,42.36406619385343
426,51.509591,-0.204666,"Lansdowne Walk, Notting Hill",21294.07552839452,25939.40743615196,3974.406092434701,38.628841607565015
427,51.526153,-0.102208,"Percival Street, Finsbury",28358.699748324463,27961.31621907736,3374.002572920865,21.39479905437352
428,51.539957,-0.145246,"Arlington Road, Camden Town",25333.254624271518,29420.352669668882,2376.169591047356,31.607565011820334
429,51.517428,-0.107987,"New Fetter Lane, Holborn",27982.78246397292,26980.320099793287,2874.9931444956032,12.76595744680851
430,51.509474,-0.002275,"East India DLR, Blackwall",35343.88617608252,26290.523425442203,10263.627865200171,57.75413711583925
431,51.498386,-0.107913,"Westminster Bridge Road, Elephant & Castle",28042.690583233023,24862.137708575206,3662.758823503997,3.1205673758865253
432,51.49605,-0.104193,"Gaywood  Street, Elephant & Castle",28307.71823182324,24608.95573055526,4026.8576640689466,8.368794326241135
433,51.521564,-0.039264,"Harford Street, Mile End",32740.185885404328,27566.00499987884,7648.533351948077,41.20567375886525
434,51.503447,-0.016233,"Montgomery Square, Canary Wharf",34393.14382368006,25593.701221939264,9398.65573902384,53.262411347517734
435,51.511542,-0.056667,"Watney Street, Shadwell",31562.05255595199,26418.895739254454,6484.55434421341,31.48936170212766
436,51.535678,-0.062546,"Regent's Row , Haggerston ",31082.861948543232,29093.058400994956,6312.242615314626,40.8274231678487
437,51.513548,-0.005659,"Aberfeldy Street, Poplar",35096.627566649055,26737.31913110291,9992.917964617973,59.97635933806147
438,51.509424,-0.219712,"Westfield Eastern Access Road, Shepherd's Bush",20250.058976016884,25895.311872931048,4995.133995496252,48.84160756501183
439,51.51601,-0.0985,"King Edward Street, St Pauls",28645.33174526898,26839.64504607962,3543.1165994182243,15.295508274231677
440,51.49397800000001,-0.127554,"Page Street, Westminster",26691.471570630718,24336.6978696039,3145.3360389792842,4.633569739952719
441,51.501391,-0.205991,"Abbotsbury Road, Holland Park",21224.458716560548,25024.93691010136,4382.710098181741,37.825059101654844
442,51.511624,-0.205921,"Ladbroke Grove Central, Notting Hill",21201.41071016258,26163.43347392316,4007.7290164806655,39.621749408983455
443,51.518369,-0.043371,"Rectory Square, Stepney",32464.67106879337,27202.9509856384,7357.408040053484,40.33096926713949
444,51.51746,-0.12335,"Bury Place, Holborn",26916.41309838841,26956.419228164512,1810.3344006992115,12.76595744680851
445,51.499286,-0.009152,"Preston's Road, Cubitt Town",34897.341200249386,25144.170482706366,9973.31342286312,56.666666666666664
446,51.509943,-0.117619,"Somerset House, Strand",27335.68905791397,26130.41126317394,2411.172840545168,4.75177304964539
447,51.521905,-0.063386,"Selby Street, Whitechapel",31065.14607312018,27559.35058646291,5977.7218953684005,31.82033096926714
448,51.509158,-0.224103,"Westfield Ariel Way, White City",19945.959642419475,25858.313940679625,5299.628221062919,52.104018912529554
449,51.51616,-0.18697,"Bishop's Bridge Road West, Bayswater",22504.393825690087,26700.466295677088,2628.356095274823,33.56973995271868
450,51.53213,-0.08299,"Pitfield Street Central, Hoxton",29674.853361571644,28660.993452085386,4840.35914037271,30.472813238770687
451,51.503083,-0.017676,"Upper Bank Street, Canary Wharf",34294.05907423375,25550.49398934116,9307.673861205172,51.63120567375886
452,51.46925984,-0.141812513,"Wandsworth Rd, Isley Court, Wandsworth Road",25771.1388594865,21561.70705229152,5532.897733211349,23.9952718676123
453,51.50403821,-0.217400093,"Woodstock Grove, Shepherd's Bush",20425.14299224513,25300.071887546303,5001.532840478991,45.29550827423168
454,51.47817208,-0.144690541,"Bradmead, Nine Elms",25546.051677973446,22548.072037499547,4527.906339954723,23.971631205673756
455,51.4768851,-0.215895601,"Finlay Street, Fulham",20603.220503479635,22281.95382354586,6563.5367137380435,47.068557919621746
456,51.48102131,-0.209973497,"Aintree Street, Fulham",21003.36702892749,22752.129858036846,5947.039775650501,43.262411347517734
457,51.47107905,-0.207842908,"Elysium Place, Fulham",21178.436096090638,21649.72183403207,6682.993723721232,42.45862884160756
458,51.47625965,-0.193254007,"Eel Brook Common, Walham Green",22177.80424730325,22250.94868558456,5627.39499589299,35.57919621749409
459,51.4737636,-0.197010096,"Irene Road, Parsons Green",21923.711126918282,21966.842754694957,6002.660642190038,37.3758865248227
460,51.47518024,-0.167160736,"Surrey Lane, Battersea",23993.477591238032,22175.92737951429,5004.733751299218,30.520094562647756
461,51.46086446,-0.187427294,"Wandsworth Town Station, Wandsworth",22624.976530377884,20548.31906615637,6964.453051928336,45.22458628841608
462,51.50748124,-0.205535908,"Lansdowne Road, Ladbroke Grove",21239.44328708353,25703.224424018204,4098.580136404894,38.53427895981088
463,51.46193072,-0.180791784,"Nantes Close, Wandsworth",23083.145820457088,20678.36960699237,6690.449239980431,41.725768321513
464,51.4729184,-0.13210270400000002,"Courland Grove, Wandsworth Road",26435.383455919717,21985.86651861886,5239.671245689905,20.591016548463358
465,51.47761941,-0.149551631,"Queen's Circus, Battersea Park",25209.92735176001,22478.04399195148,4577.886337031742,21.5130023640662
466,51.48438657,-0.20481514,"Normand Park, Fulham",21352.494985373458,23135.27306367565,5428.837169375523,39.19621749408984
467,51.4687905,-0.158230901,"Holden Street, Battersea",24631.716774565703,21480.672591431154,5594.5149552624525,31.229314420803785
468,51.46881971,-0.184318843,"William Morris Way, Sands End",22819.045029597735,21438.650047528063,6064.985337727397,40.26004728132388
469,51.45995384,-0.190184054,"Morie Street, Wandsworth",22435.906796885538,20442.279016646407,7132.300496547529,47.09219858156029
470,51.47073264,-0.12699406800000002,"Clarence Walk, Stockwell",26796.518251683883,21751.7811886009,5565.131123623707,23.38061465721041
471,51.47950170000001,-0.141770709,"Battersea Park Road, Nine Elms",25745.124860915166,22701.129071312003,4399.945921204644,19.101654846335695
472,51.47053858,-0.163041605,"Sheepcote Lane, Battersea",24292.59036884687,21666.73996764593,5449.536357234965,31.654846335697403
473,51.48959104,-0.209378594,"Vereker Road, West Kensington",21021.370078201697,23706.48347816037,5283.750285419906,42.52955082742317
474,51.49434708,-0.215804559,"Brook Green South, Brook Green",20562.197834871928,24224.67450417977,5355.451180303538,41.91489361702127
475,51.48606206,-0.214428378,"Greyhound Road, Hammersmith",20680.245141062915,23305.333295376127,5802.610419152668,43.47517730496454
476,51.46706414,-0.193502076,"South Park, Sands End",22185.81113912849,21227.569395827042,6519.229786770598,41.773049645390074
477,51.45787019,-0.17469162300000002,"Spencer Park, Wandsworth Common",23518.308819643644,20237.20713677004,7000.661155029063,42.43498817966903
478,51.46663393,-0.169821175,"Falcon Road, Clapham Junction",23832.421521480806,21220.57284823162,5972.216923056847,35.36643026004729
479,51.47286577,-0.148059277,"Silverthorne Road, Battersea",25326.97274453142,21951.849683363485,5107.626238725055,25.579196217494093
480,51.49824168,-0.117495865,"Archbishop's Park, Waterloo",27377.721873113216,24828.924384752143,3178.488539293824,0.0
481,51.46916161,-0.174485792,"Fawcett Close, Battersea",23501.297727397832,21493.672610044392,5788.798763389012,36.12293144208038
482,51.5190427,-0.204764421,"All Saints' Road, Portobello",21261.4465155667,26990.70208601831,3847.842141599437,43.262411347517734
483,51.48373225,-0.22385225600000005,"Rainville Road, Hammersmith",20032.005914493246,23030.228811997134,6478.475761062493,48.13238770685579
484,51.50173215,-0.100292412,"Great Suffolk Street, The Borough",28562.15936253476,25248.08444480956,3897.469705452714,8.439716312056737
485,51.49886563,-0.137424571,"Buckingham Gate, Westminster",25992.20817666329,24862.93132725565,2363.2249486780183,4.066193853427896
486,51.50035306,-0.217515071,"Richmond Way, Shepherd's Bush",20427.145252095648,24889.91999241585,5157.928253493217,44.326241134751776
487,51.46904022,-0.19627483,"Peterborough Road, Sands End",21987.736882181227,21442.64862914509,6421.614388059837,41.46572104018913
488,51.48180515,-0.18027465,"World's End Place, West Chelsea",23064.130354900382,22890.18891533083,4639.458513308369,28.486997635933808
489,51.51687069,-0.213872396,"St. Mark's Road, North Kensington",20635.21539972363,26733.604167980055,4485.0559699120895,44.56264775413712
490,51.48089844,-0.183853573,"Thorndike Close, West Chelsea",22818.039517274043,22783.14855421483,4847.111073299136,30.99290780141844
491,51.51148696,-0.218190203,"Evesham Street, Avondale",20350.112022725283,26127.37897444968,4848.176051729784,46.973995271867615
492,51.47084722,-0.17070367,"Simpson Street, Battersea",23759.39261927185,21687.746218988177,5534.092067437811,32.269503546099294
493,51.48267821,-0.117661574,"Ashmole Estate, Oval",27410.740759616117,23097.2825413094,4578.3383098958675,15.67375886524823
494,51.48294452,-0.219346128,"Crabtree Lane, Fulham",20347.123012694083,22950.20096216901,6286.570476100802,46.02836879432625
495,51.46841875,-0.199135704,"Broomhouse Lane, Parsons Green",21790.664115942825,21368.620360274537,6583.502250732494,42.48226950354611
496,51.49968060000001,-0.221791552,"Blythe Road West, Shepherd's Bush",20132.036223295494,24807.88862441291,5460.438703469505,46.052009456264784
497,51.47729232,-0.16478637,"Ethelburga Estate, Battersea Park",24152.53561697583,22415.017060175214,4737.304478063881,27.96690307328605
498,51.46437067,-0.17461940399999998,"Grant Road West, Clapham Junction",23505.30127448459,20960.47493724074,6301.746523283113,37.87234042553192
499,51.51632095,-0.202608612,"All Saints Church, Portobello",21418.50590155637,26691.591948175366,3708.080902492157,39.66903073286053
500,51.46321128,-0.215550761,"Montserrat Road , Putney",20664.24885437064,20761.390542544803,7704.595197251005,49.21985815602837
501,51.47439218,-0.163347594,"Albert Bridge Road, Battersea Park",24260.57689847755,22094.89860736541,5031.912987896049,27.895981087470457
502,51.48335692,-0.216305546,"Everington Street, Fulham",20557.20070158008,23001.22014069688,6094.9365099973365,43.829787234042556
503,51.51854104,-0.034903714,"Mile End Stadium, Mile End",33051.81595394542,27237.83911342281,7945.169819747225,42.86052009456265
504,51.54100708,-0.14326094,"Hawley Crescent, Camden Town",25467.996016526857,29540.662991554214,2511.674444728335,33.664302600472816
505,51.47311696,-0.137235175,"Stewart's Road, Nine Elms",26078.251025364283,21998.87040268237,5148.055074921389,21.98581560283688
506,51.51563007,-0.049067243,"Aylward Street, Stepney",32077.45613346685,26887.705232470034,6970.704888119988,37.895981087470446
507,51.51542791,-0.02356501,"Stainsby Road , Poplar",33848.11233394529,26912.72173791207,8740.51281949107,48.959810874704495
508,51.53658514,-0.075885686,"Dunston Road , Haggerston",30154.734673952218,29169.544001276226,5471.197860775919,36.548463356974
509,51.53571683,-0.060291813,"Ada Street, Hackney Central",31239.13687579293,29101.52272407981,6463.018759209901,41.46572104018913
510,51.53642464,-0.054162264,"Victoria Park Road, Hackney Central",31662.293389539293,29191.556994842973,6893.0798411889955,44.822695035460995
511,51.48724429,-0.205279052,"Star Road, West Kensington",21312.47892601353,23452.391049265952,5233.46413030173,39.69267139479906
512,51.53603947,-0.026262677,"Wendon Street, Old Ford",33599.01121737141,29200.568640913443,8757.210119430423,51.84397163120567
513,51.52458353,-0.058631453,"Finnis Street, Bethnal Green",31387.19650495806,27866.06560195945,6330.6370578774295,35.60283687943263
514,51.45799126,-0.184806157,"Alma Road, Wandsworth",22815.048154804117,20233.202999905945,7196.904979290228,47.399527186761226
515,51.47732253,-0.13874872300000002,"Thessaly Road North, Nine Elms",25961.205910685516,22464.04158917736,4669.244937586066,21.04018912529551
516,51.47505096,-0.150908371,"Alfreda Street, Battersea Park",25122.89615568193,22189.93684149402,4864.895928500651,24.373522458628845
517,51.47569809,-0.20587627,"Chesilton Road, Fulham",21302.48010577196,22166.913942723448,6195.1008548642985,41.86761229314421
518,51.46199911,-0.206240805,"Putney Bridge Road, East Putney",21314.490332180616,20642.34938207947,7450.914070008116,51.86761229314422
519,51.47893931,-0.208485293,"St. Peter's Terrace, Fulham",21112.40825795407,22523.045853644,6042.159379932607,43.28605200945626
520,51.49208492,-0.229116862,"Bridge Avenue, Hammersmith",19643.858529350782,23950.56852643748,6285.015297988186,50.73286052009456
521,51.47727637,-0.189210466,"Michael Road, Walham Green",22455.906867746075,22370.99365631721,5382.913437411982,33.64066193853428
522,51.50630441,-0.087262995,"Duke Street Hill, London Bridge",29453.4877484639,25780.28412454473,4527.817189918173,15.626477541371157
523,51.50542628,-0.150817316,"Park Lane, Mayfair",25043.85398241812,25569.18920146072,1487.039953690474,15.295508274231677
524,51.46230566,-0.175407201,"Plough Terrace, Clapham Junction",23456.283991014425,20729.38945159528,6537.708472050039,39.76359338061466
525,51.46489445,-0.17302926,"Grant Road East, Clapham Junction",23614.341420330195,21021.498327985726,6215.637300003953,37.51773049645391
526,51.50659035,-0.216104479,"Queensdale Road, Shepherd's Bush",20508.172636923282,25586.17863651944,4829.3103484278445,44.27895981087471
527,51.47993289,-0.19411695,"Fulham Broadway, Walham Green",22107.77672853331,22658.099445747477,5323.2462850902175,35.67375886524823
528,51.47514228,-0.187278987,"Imperial Road, Sands End",22595.959710182393,22136.90741202576,5522.673765494187,36.71394799054374
529,51.48176572,-0.185273723,"Hortensia Road, West Brompton",22717.00172477063,22877.182798760685,4813.841405691909,30.73286052009457
530,51.51092871,-0.214594781,"Sirdar Road, Avondale",20601.20528813824,26071.35921551406,4613.5864645360325,44.72813238770685
531,51.5129814,-0.219486603,"Freston Road, Avondale",20256.076500196417,26291.4390129318,4912.3541005341385,48.03782505910166
532,51.51510818,-0.208565479,"Blenheim Crescent, Ladbroke Grove",21008.354421690263,26546.536831586596,4131.782303062785,41.56028368794326
533,51.46079243,-0.212607684,"Oxford Road, Putney",20875.328140325946,20497.29340028248,7805.315631273168,51.41843971631206
534,51.46745485,-0.172293499,"Ingrave Street, Battersea",23658.356668871347,21307.60478661282,5927.398014523213,35.57919621749409
535,51.47816972,-0.18243547,"Upcerne Road, West Chelsea",22924.079975059267,22482.03698986434,5067.847296983221,30.449172576832147
536,51.4795738,-0.17903854,"Lots Road, West Chelsea",23156.16543886524,22644.097637619503,4823.588632096868,28.345153664302607
537,51.48796408,-0.161765173,"Ormonde Gate, Chelsea",24332.597808818293,23607.4592289518,3533.647108803067,18.39243498817967
538,51.53727795,-0.079201849,"Hertford Road, De Beauvoir Town",29922.648359664217,29240.56870839882,5286.880474070035,35.27186761229315
539,51.53932857,-0.074284675,"Haggerston Road, Haggerston ",30257.77166869669,29477.65813635956,5690.56761151033,39.47990543735225
540,51.4710956,-0.157850096,"Culvert Road, Battersea",24651.723236712445,21737.767736287293,5336.650598662815,29.125295508274238
541,51.51612862,-0.120909408,"Newton Street, Covent Garden",27089.607563299447,26812.657741703413,1995.5995309170548,10.661938534278963
542,51.45816465,-0.20600248,"Manfred Road, East Putney",21341.502011332355,20216.190907605316,7807.620189141414,56.288416075650126
543,51.49263658,-0.234094148,"Hammersmith Town Hall, Hammersmith",19296.72962565049,24003.58765560554,6564.267280343617,52.62411347517731
544,51.5129006,-0.214762686,"Grenfell Road, Avondale",20584.198169092506,26290.43959298139,4588.668201554981,45.17730496453901
545,51.48512191,-0.17497190199999998,"The Vale, Chelsea",23423.262018530077,23268.330805377253,4144.674476306765,25.153664302600475
546,51.47515398,-0.159169801,"Prince of Wales Drive, Battersea Park",24548.683321933702,22186.934069326177,4899.99157356383,25.555555555555554
547,51.48795853,-0.18740450600000005,"Harcourt Terrace, West Brompton",22551.937920430562,23562.435686985234,4328.279686989783,31.914893617021278
548,51.51787005,-0.201005397,"Westbourne Park Road, Portobello",21525.544867398534,26866.657511634432,3588.1462837285358,40.449172576832154
549,51.52456169,-0.165668686,"Broadley Terrace, Marylebone",23959.443985016376,27671.965124635404,1304.5276790048467,29.50354609929078
550,51.48321729,-0.211860644,"Humbolt Road, Fulham",20866.315281232004,22993.218936987367,5873.230016959747,41.91489361702127
551,51.50070305,-0.129698963,"Storey's Gate, Westminster",26523.40424517315,25081.01430851189,2428.396995343523,1.3002364066193852
552,51.52059714,-0.032566532999999995,"Mile End Park Leisure Centre, Mile End",33207.87289208066,27470.926092075795,8109.800788704037,45.17730496453901
553,51.46239255,-0.16829214,"St. John's Road, Clapham Junction",23950.467062656582,20751.399437782093,6408.9501897098135,37.210401891252964
554,51.46760141,-0.20682737,"Ranelagh Gardens, Fulham",21258.467219453876,21264.57898802284,6953.525241819256,44.964539007092206
555,51.45752945,-0.192165613,"Ram Street, Wandsworth",22304.85926705756,20169.176936274423,7434.635290973047,49.905437352245855
556,51.45705988,-0.200806304,"Santos Road, Wandsworth",21705.637386704155,20102.150479041185,7740.846955653879,55.31914893617022
557,51.46134382,-0.159322467,"Clapham Common Northside, Clapham Common",24576.699573434176,20650.364205828202,6426.510468626501,34.491725768321515
558,51.473611,-0.191803,"Sandilands Road, Walham Green",22285.881284900897,21958.788261921465,5825.6393260757995,37.163120567375884
559,51.491026,-0.209121,"Gwendwr Road, West Kensington",21035.354004370427,23866.55395399864,5172.77320905775,43.04964539007093
560,51.509224,-0.216016,"Rifle Place, Avondale",20507.17272663786,25879.311081227464,4749.35344090453,45.05910165484634
561,51.47250956,-0.122831913,"Binfield Road, Stockwell",27080.622753751217,21956.85873579947,5466.021765191027,22.52955082742317
562,51.511891,-0.107349,"Tallis Street, Temple",28042.99598310128,26365.50469995805,3014.1197215488764,9.33806146572104
563,51.470131,-0.20464,"Hurlingham Park, Parsons Green",21403.550210528905,21549.707713333282,6635.8657846406495,42.36406619385343
564,51.496664,-0.223868,"Little Brook Green, Brook Green",19996.00494027602,24468.803599253442,5729.541782690307,46.09929078014184
565,51.460333,-0.16702899999999998,"Abyssinia Close, Clapham Junction",24043.97745203729,20524.482470837218,6616.566846103993,38.274231678487006
566,51.4619230679,-0.16529785669299998,"Limburg Road, Clapham Common",24159.847573904422,20704.38134899785,6420.934248855642,37.494089834515364
